,distance,global_stop_id,location_type,parent_station_global_stop_id,route_type,rt_stop_id,stop_code,stop_lat,stop_lon,stop_name,wheelchair_boarding
0,10118,CATAMI:9228,0,,3,5593,5593,42.71591729524137,-84.39967564823418,Gr River / Paddock Dr,0
1,10105,CATAMI:9291,0,,3,5672,5672,42.71580038359775,-84.39954974338721,Gr River / Paddock Farms,0
2,14387,CATAMI:8701,0,,3,2640,2640,42.75398552504278,-84.41003581849907,Lake Lansing / Martinus St,0
3,14398,CATAMI:8702,0,,3,2641,2641,42.75398552504278,-84.41167258150966,Lake Lansing / Cypress St,0
4,14247,CATAMI:7970,0,,3,2655,2655,42.75278942899658,-84.40865985838576,Marsh / E Lake Lansing Ct.,0
5,14179,CATAMI:8700,0,,3,3950,3950,42.75219587757515,-84.40848898752202,Marsh / Lake Lansing Rd,0
6,13867,CATAMI:7971,0,,3,2630,2630,42.7493720117217,-84.4085339535388,Marsh / W Lake Dr,0
7,13698,CATAMI:8698,0,,3,3948,3948,42.74786115355808,-84.40834509626833,Marsh / Haslett Rd,0
8,13164,CATAMI:8697,0,,3,3947,3947,42.74306777616989,-84.40810227977775,Marsh / Franklin St,0
9,13040,CATAMI:7973,0,,3,2666,2666,42.74193463254718,-84.40814724579452,Marsh / Nemoke Trl,0
10,12627,CATAMI:7974,0,,3,2667,2667,42.73821144635824,-84.40821019821801,Marsh / Rolling Hills Dr,0
11,12441,CATAMI:8695,0,,3,3945,3945,42.73649374451745,-84.40900160011324,Marsh / Huntsville Rd,0
12,12395,CATAMI:7975,0,,3,2668,2668,42.73605307755305,-84.40936132824744,Marsh / Huntsville Dr,0
13,12075,CATAMI:7976,0,,3,2669,2669,42.73307632724257,-84.4108272203943,Marsh Rd / Tihart Dr,0
14,12039,CATAMI:8694,0,,3,3944,3944,42.73274357871844,-84.41085420000437,Marsh / Tihart Rd,0
15,11567,CATAMI:8692,0,,3,4863,4863,42.72859771197182,-84.40903757292666,Times Square / Central Park,0
16,10548,CATAMI:9289,0,,3,4682,4682,42.71938867173637,-84.4092713962139,Central Park / Grand River,0
17,10440,CATAMI:9154,0,,3,5609,5609,42.71823754170694,-84.41159164267947,Gr River / Dobie Road,0
18,10432,CATAMI:7937,0,,3,5670,5670,42.71821056209687,-84.41114198251172,Grand River / Dobie,0
19,10232,CATAMI:9155,0,,3,3981,3981,42.71644789423931,-84.41040453983662,Dobie / Hamilton Rd,0
20,10155,CATAMI:7936,0,,3,4616,4616,42.71576441078433,-84.41026964178629,Dobie / Minoka Trail,0
21,14565,CATAMI:7967,0,,3,5447,5447,42.75491182498834,-84.4194067363949,Lake Lansing / Bois Isle,0
22,14431,CATAMI:8703,0,,3,2642,2642,42.75397653183943,-84.41615119678042,Lake Lansing / Buena Pkwy,0
23,13755,CATAMI:8710,0,,3,4611,4611,42.74751941183059,-84.41985639656265,Bois Isle / Haslett Rd,0
24,11679,CATAMI:9681,0,,3,6115,6115,42.7286606643953,-84.41973049171568,Central Park / Farmer's Market,0
25,11445,CATAMI:8691,0,,3,4862,4862,42.72714081302832,-84.41386692312827,Central Park / Marsh,0
26,11225,CATAMI:10544,0,,3,1,1,42.72441587241178,-84.42059383923775,Meridian Mall,0
27,10832,CATAMI:7939,0,,3,1712,1712,42.72080959786645,-84.42074672369479,Gr. River Ave / Marsh Rd,0
28,10575,CATAMI:9153,0,,3,4617,4617,42.71914585524578,-84.41492812112415,Gr River / Washington Hts,0
29,14659,CATAMI:8705,0,,3,3961,3961,42.75550537640977,-84.42198778575776,Lake Lansing / Bois Isle,0
30,14658,CATAMI:7966,0,,3,2652,2652,42.75538846476615,-84.42306697016036,Lake Lansing / Bois Isle,0
31,14637,CATAMI:8706,0,,3,2646,2646,42.75510967546214,-84.42395729729249,Lacdumont / Lake Lansing,0
32,14625,CATAMI:7965,0,,3,2645,2645,42.75501075022525,-84.42380441283547,Lacdumont / Lake Lansing,0
33,14391,CATAMI:7964,0,,3,2644,2644,42.75280741540328,-84.42450588269715,Lacdumont Near #2091,0
34,14155,CATAMI:8708,0,,3,4609,4609,42.75062206698804,-84.42477567879779,Lacdumont / Lake Lansing,0
35,14066,CATAMI:7963,0,,3,5720,5720,42.74992059712635,-84.42378642642875,Lacdumont / Bois Isle,0
36,12711,CATAMI:8696,0,,3,3946,3946,42.73898486184676,-84.40785047008382,Marsh / Rolling Hills Dr,0
37,13899,CATAMI:7959,0,,3,2912,2912,42.7469168672058,-84.434434379201,Haslett / Westminster Way,0
38,11382,CATAMI:9791,0,,3,1703,1703,42.7233726608226,-84.43544161797674,Gr. River Ave / Nakoma Dr,0
39,13926,CATAMI:10638,0,,3,5445,5445,42.7470967312729,-84.43482108694525,Haslett / Westminster,0
40,11297,CATAMI:9800,0,,3,1714,1714,42.72310286472195,-84.43290553463065,Gr. River / Grand View,0
41,11227,CATAMI:9792,0,,3,1704,1704,42.72271615697769,-84.43154756092406,Gr. River Ave after Grand View,0
42,14162,CATAMI:10640,0,,3,6053,6053,42.74706975166284,-84.4464043328664,Haslett / Park Lake,0
43,14037,CATAMI:10639,0,,3,6179,6179,42.74705176525613,-84.4407566011595,Haslett / Westminster Way,0
44,14213,CATAMI:8713,0,,3,5446,5446,42.74705176525613,-84.448598674485,Haslett / Park Lake,0
45,14149,CATAMI:7958,0,,3,4605,4605,42.7469168672058,-84.44656621052678,Haslett / Park Lake Rd,0
46,11940,CATAMI:9789,0,,3,1701,1701,42.72549505681437,-84.44848176284138,Gr. River Ave / Park Lake,0
47,11669,CATAMI:10793,0,,3,1716,1716,42.72461372288559,-84.44188075157886,Gr. River / Mohawk Rd,0
48,11613,CATAMI:9790,0,,3,1702,1702,42.72430795397152,-84.44096344483667,Gr. River Ave / Small Acre,0
49,14365,CATAMI:8715,0,,3,2848,2848,42.74700679923936,-84.45477700518984,Haslett / Deerpath Ln,0
50,14325,CATAMI:8714,0,,3,6038,6038,42.74698881283265,-84.45332909944969,Haslett / Merritt,0
51,14344,CATAMI:7957,0,,3,2605,2605,42.74690787400245,-84.45438130424222,Haslett / Deerpath Ln,0
52,12492,CATAMI:10794,0,,3,1719,1719,42.7282020110242,-84.45742100697619,Gr. River / E Brookfield,0
53,12111,CATAMI:10697,0,,3,1700,1700,42.72629545191295,-84.45147649955858,Grand River / Dawn,0
54,12002,CATAMI:9803,0,,3,1717,1717,42.72586377815192,-84.44930014434668,Gr. River / Park Lake R,0
55,16073,CATAMI:8062,0,,3,4837,4837,42.76100921686298,-84.4635633648676,Birch Row after Cobbler's,0
56,15897,CATAMI:8061,0,,3,4836,4836,42.76002895769729,-84.46088339026784,Birch Row / Briarwick,0
57,14424,CATAMI:7968,0,,3,3964,3964,42.75387760660252,-84.41658287054145,Lake Lansing / Bayonne Ave,0
58,15851,CATAMI:7890,0,,3,2515,2515,42.75933648103896,-84.46185465623016,Birch Row / Briarwick Ct,0
59,15876,CATAMI:8063,0,,3,4838,4838,42.75904869853161,-84.46386014057832,Hagadorn / Farrington,0
60,15823,CATAMI:7886,0,,3,2511,2511,42.75869796360077,-84.4632845755636,Hagadorn / Birch Row Dr,0
61,15889,CATAMI:7892,0,,3,2520,2520,42.75836521507663,-84.46678293166866,Birch Row / Hardy Ave,0
62,15802,CATAMI:7891,0,,3,3857,3857,42.75835622187328,-84.46379718815483,Birch Row / Hagadorn Rd,0
63,15586,CATAMI:7885,0,,3,2510,2510,42.75671046565932,-84.46221438436436,Hagadorn / Horizon Dr,0
64,15577,CATAMI:10518,0,,3,4839,4839,42.75654858799894,-84.46250216687172,Hagadorn / Horizon,0
65,15469,CATAMI:7884,0,,3,2509,2509,42.75559530844331,-84.462205391161,Hagadorn / Lake Lansing,0
66,15311,CATAMI:8065,0,,3,4840,4840,42.75400351144949,-84.46248418046501,Hagadorn / Applegate,0
67,15283,CATAMI:7883,0,,3,4827,4827,42.75380566097568,-84.4622683435845,Hagadorn / Applegate,0
68,15046,CATAMI:7882,0,,3,4826,4826,42.75153038052689,-84.46222337756771,Hagadorn / Crestwood,0
69,14997,CATAMI:8066,0,,3,4841,4841,42.75099978152895,-84.46245720085494,Hagadorn / Crestwood,0
70,14776,CATAMI:8067,0,,3,5807,5807,42.74889537194389,-84.46240324163482,Hagadorn / Cambria,0
71,14522,CATAMI:10631,0,,3,96,96,42.74686290798568,-84.4609103698779,Haslett / Hagadorn,0
72,14626,CATAMI:7880,0,,3,5599,5599,42.74686290798568,-84.46436375996619,Haslett / Hagadorn,0
73,14499,CATAMI:8717,0,,3,2603,2603,42.74622439054748,-84.46237626202475,Hagadorn / Haslett,0
74,14306,CATAMI:7954,0,,3,3924,3924,42.74440776346978,-84.46217841155094,Hagadorn / Ridgewood Dr,0
75,14068,CATAMI:8718,0,,3,4091,4091,42.74206053739415,-84.4623043163979,Hagadorn / Burcham Dr,0
76,13974,CATAMI:7953,0,,3,2601,2601,42.74118819666872,-84.46217841155094,Hagadorn / Burcham Dr,0
77,13694,CATAMI:8720,0,,3,2614,2614,42.7384182900354,-84.4623043163979,Hagadorn / Snyder Rd,0
78,13453,CATAMI:10755,0,,3,2615,2615,42.7360620707564,-84.46232230280462,Hagadorn / Beech St,0
79,13256,CATAMI:8722,0,,3,2616,2616,42.73415551164516,-84.46223237077108,Hagadorn / Albert Ave,0
80,13250,CATAMI:7950,0,,3,2598,2598,42.73413752523845,-84.46208847951739,Hagadorn / Cahill Dr,0
81,13003,CATAMI:10693,0,,3,1696,1696,42.73035138662603,-84.46607246860363,Gr. River Ave / Spartan Av,0
82,12823,CATAMI:9348,0,,3,4692,4692,42.72995568567841,-84.46204351350062,Hagadorn / Grand River,0
83,12870,CATAMI:8724,0,,3,1721,1721,42.72986575364486,-84.46370725612128,Gr. River / N Hagadorn,0
84,12432,CATAMI:7909,0,,3,2845,2845,42.72522526071372,-84.46446268520309,Shaw / Akers Dr,0
85,12414,CATAMI:9315,0,,3,4536,4536,42.72425399475139,-84.46659407439822,Conrad / Wilson,0
86,12108,CATAMI:7910,0,,3,6071,6071,42.72270716377434,-84.46243022124489,Hagadorn / Wilson,0
87,11838,CATAMI:9492,0,,3,6060,6060,42.71910988243236,-84.46479543372723,Service Road / Lot 91,0
88,15988,CATAMI:8058,0,,3,4833,4833,42.75824830343301,-84.47054209067103,Birch Row / Pollard,0
89,14809,CATAMI:7879,0,,3,4825,4825,42.74628734297096,-84.47188207797092,Alton / Saginaw,0
90,14500,CATAMI:10789,0,,3,4843,4843,42.7431667014068,-84.47206194203801,Alton Street / Burcham,0
91,14309,CATAMI:7877,0,,3,4823,4823,42.74135906753246,-84.47183711195413,Alton / Burcham,0
92,14297,CATAMI:8069,0,,3,5782,5782,42.74072055009426,-84.47327602449093,Burcham / Butterfield,0
93,14286,CATAMI:7876,0,,3,5693,5693,42.740612631654,-84.47327602449093,Burcham / Butterfield,0
94,13624,CATAMI:9235,0,,3,1656,1656,42.73308532044592,-84.47556029814308,Gr. River / Collingwood,0
95,13447,CATAMI:9810,0,,3,1724,1724,42.73234787777082,-84.47279039150976,Gr. River / Kedzie St,0
96,13313,CATAMI:10691,0,,3,1694,1694,42.7316733875192,-84.47100973724548,Gr. River Ave / Bogue St,0
97,15931,CATAMI:7889,0,,3,2514,2514,42.7603077470013,-84.46104526792823,Birch Row / Captain's Way,0
98,13275,CATAMI:9809,0,,3,1723,1723,42.73158345548566,-84.47021833535025,Gr. River / Gunson St,0
99,13189,CATAMI:10692,0,,3,1695,1695,42.73115178172461,-84.46906720532081,Gr. River Ave / River St,0
100,13134,CATAMI:8725,0,,3,1722,1722,42.73099889726758,-84.46794305490145,Gr. River / Stoddard Av,0
101,13448,CATAMI:8075,0,,3,1660,1660,42.73083701960719,-84.47665746895238,Farm / E Circle Dr,0
102,14549,CATAMI:8704,0,,3,5825,5825,42.75479491334472,-84.41902002865064,Lake Lansing / Bayonne,0
103,13323,CATAMI:9320,0,,3,4526,4526,42.73054024389648,-84.47424729045326,Physics / Dormitory Rd,0
104,13062,CATAMI:8727,0,,3,4761,4761,42.72867865080201,-84.47216986047827,Bogue / Waters Edge,0
105,12892,CATAMI:9461,0,,3,5958,5958,42.72560297525462,-84.47547036610953,Ramp 1 Bay 7,0
106,12892,CATAMI:9364,0,,3,5959,5959,42.72560297525462,-84.47547036610953,Ramp 1 Bay 8,0
107,12892,CATAMI:9343,0,,3,5956,5956,42.72560297525462,-84.47547036610953,Ramp 1 Bay 5,0
108,12892,CATAMI:9330,0,,3,5954,5954,42.72560297525462,-84.47547036610953,Ramp 1 Bay 3,0
109,12892,CATAMI:8969,0,,3,5952,5952,42.72560297525462,-84.47547036610953,Ramp 1 Bay 1,0
110,12573,CATAMI:7908,0,,3,2875,2875,42.7253691519674,-84.46788909568133,Shaw / Conrad,0
111,12466,CATAMI:9346,0,,3,4219,4219,42.72312984433202,-84.47080289356832,Wilson / Bogue,0
112,12572,CATAMI:9345,0,,3,4547,4547,42.72312085112866,-84.47349186137144,Wilson Rd / Science,0
113,12068,CATAMI:9493,0,,3,5951,5951,42.71939766493973,-84.46990357323283,Lot 92 / MSU Clinical Center,0
114,11987,CATAMI:9491,0,,3,6059,6059,42.71909189602566,-84.46863553155978,Service Road / Clinical Center,0
115,18116,CATAMI:8946,0,,3,4678,4678,42.77418425977795,-84.48607335286499,Hunsacker / Village,0
116,17689,CATAMI:8945,0,,3,4216,4216,42.77109959102721,-84.48262895598005,Landing / Chandler Crossing,0
117,17742,CATAMI:8139,0,,3,5941,5941,42.77109059782386,-84.48427471219401,Coleman / Chandler,0
118,17295,CATAMI:9726,0,,3,6160,6160,42.76686379224704,-84.48378907921284,Abbot / Abbot Road Park,0
119,17274,CATAMI:10477,0,,3,5744,5744,42.76680083982355,-84.4833394190451,Abbot / El Aquatic Center,0
120,16962,CATAMI:10476,0,,3,5743,5743,42.76366221185268,-84.48352827631554,Abbot / 25 East Apts,0
121,16634,CATAMI:8952,0,,3,5763,5763,42.76031674020465,-84.48378907921284,Abbot / Arbor Glen,0
122,16559,CATAMI:8136,0,,3,2525,2525,42.75962426354632,-84.4836182083491,Abbot / W Lake Lansing Rd,0
123,16287,CATAMI:7896,0,,3,2504,2504,42.75873393641418,-84.47831221836968,Lake Lansing / Gossard Ave,0
124,16470,CATAMI:8953,0,,3,4848,4848,42.7586709839907,-84.48380706561954,Abbot / Lake Lansing,0
125,16281,CATAMI:8056,0,,3,2524,2524,42.75862601797392,-84.47843812321665,Lk. Lansing Rd / Gossard Ave,0
126,16345,CATAMI:8954,0,,3,6076,6076,42.75742092872436,-84.48384303843297,Abbot / Asher,0
127,16105,CATAMI:8955,0,,3,3864,3864,42.75503772983531,-84.48379807241619,Abbot / Taylor Dr,0
128,15988,CATAMI:9130,0,,3,3845,3845,42.75391357941594,-84.4836541811625,Abbot Rampart Way,0
129,15524,CATAMI:9128,0,,3,3843,3843,42.74924610687474,-84.48364518795916,Abbot / Loree Dr,0
130,15388,CATAMI:9127,0,,3,1144,1144,42.74788813316814,-84.48360022194238,Abbot / Saginaw,0
131,15208,CATAMI:8959,0,,3,3868,3868,42.7459995604636,-84.48377109280612,Abbot / Saginaw St,0
132,15182,CATAMI:9126,0,,3,3841,3841,42.74579271678644,-84.4836361947558,Abbot / Whitehills Dr,0
133,14979,CATAMI:8960,0,,3,3869,3869,42.74366132759132,-84.4838160588229,Abbot / Northlawn St,0
134,14797,CATAMI:9124,0,,3,2495,2495,42.74185369371698,-84.48366317436587,Abbot / Centerlawn St,0
135,14510,CATAMI:8070,0,,3,4844,4844,42.74075652290768,-84.4789867086213,Burcham / Old Hickory,0
136,14664,CATAMI:8962,0,,3,5762,5762,42.74064860446742,-84.4832584802149,Burcham / Abbot,0
137,14426,CATAMI:7875,0,,3,4822,4822,42.74062162485735,-84.47712511552683,Burcham / Old Hickory,0
138,14525,CATAMI:8071,0,,3,2493,2493,42.74023491711309,-84.48074038327552,Mac / Burcham,0
139,14097,CATAMI:7872,0,,3,4819,4819,42.73589119989266,-84.48065045124197,Mac / Albert,0
140,14076,CATAMI:10698,0,,3,1658,1658,42.7349469135404,-84.48241311909953,Gr. River / Mac Ave,0
141,14095,CATAMI:10688,0,,3,1653,1653,42.73483899510013,-84.48314156857128,Gr. River / Abbot Rd,0
142,13661,CATAMI:9367,0,,3,4527,4527,42.73266263988825,-84.47755678928787,E Circle / Farm Lane,0
143,13855,CATAMI:9340,0,,3,4531,4531,42.73179029916282,-84.48440061704098,W.Circle / Kalamazoo St,0
144,13649,CATAMI:9341,0,,3,4181,4181,42.73086399921726,-84.48160373079759,W Circle / Library,0
145,13431,CATAMI:10757,0,,3,1661,1661,42.73016252935557,-84.477889537812,Farm Ln / Auditorium Rd,0
146,13371,CATAMI:7869,0,,3,5760,5760,42.72960495074757,-84.47774564655832,Farm / Auditorium,0
147,13374,CATAMI:9342,0,,3,4068,4068,42.72923622941001,-84.47871691252065,Auditorium / Farm Ln,0
148,13490,CATAMI:9114,0,,3,2917,2917,42.72862469158188,-84.4829167384874,Red Cedar / Wells Hall,0
149,13241,CATAMI:9319,0,,3,4646,4646,42.72842684110807,-84.47734095240735,/ Fairchild Aud.,0
150,13291,CATAMI:9463,0,,3,4813,4813,42.72577384611837,-84.48450853548123,N Shaw / Lot 79 (Stadium),0
151,12925,CATAMI:8077,0,,3,5645,5645,42.72487452578287,-84.4779884630489,Farm / S Shaw,0
152,13056,CATAMI:9115,0,,3,4077,4077,42.7241910423279,-84.48253003074315,Red Cedar / Wilson,0
153,12839,CATAMI:7868,0,,3,4540,4540,42.72402017146415,-84.47788054460865,Farm / Wilson,0
154,12730,CATAMI:10520,0,,3,2890,2890,42.72276112299447,-84.47812336109924,Farm / Wilson,0
155,12621,CATAMI:9451,0,,3,4630,4630,42.72168193859188,-84.47796148343885,Farm / Trowbridge,0
156,12765,CATAMI:7865,0,,3,4688,4688,42.72132221045768,-84.48203540455863,Red Cedar / Trowbridge,0
157,18187,CATAMI:8142,0,,3,5943,5943,42.7731770210022,-84.49122645838736,Coleman / Block 36,0
158,14089,CATAMI:9457,0,,3,4529,4529,42.7335889398338,-84.48588449559453,W. Circle / Abbot Rd,0
159,18176,CATAMI:9092,0,,3,5982,5982,42.77306010935858,-84.49127142440413,Coleman / Block 36,0
160,18035,CATAMI:8948,0,,3,5553,5553,42.77302413654517,-84.487188510081,Coleman / Hunsaker,0
161,18143,CATAMI:8947,0,,3,4204,4204,42.7729162181049,-84.49072283899949,Coleman / Block 36,0
162,17007,CATAMI:8051,0,,3,3888,3888,42.76008291691742,-84.49464387566223,Lk. Lansing Rd / Regency Dr,0
163,16689,CATAMI:7899,0,,3,4829,4829,42.75938144705574,-84.48796192556952,Lake Lansing / Arbor Glenn,0
164,16704,CATAMI:8053,0,,3,4831,4831,42.7593095014289,-84.48857346339766,Lake Lansing / Arbor Glen,0
165,16617,CATAMI:8054,0,,3,6075,6075,42.75926453541212,-84.48630717615222,Lake Lansing / Asher Ct,0
166,16800,CATAMI:8133,0,,3,2549,2549,42.75842816750011,-84.49347475922609,Harrison / Tarleton Ave,0
167,16500,CATAMI:8132,0,,3,2548,2548,42.75534349874938,-84.49350173883616,Harrison Rd / Crown Blvd,0
168,16317,CATAMI:8131,0,,3,2547,2547,42.75349089885826,-84.49345677281939,Harrison / Blanchette Dr,0
169,16292,CATAMI:9102,0,,3,2560,2560,42.75317613674083,-84.49360965727642,Harrison / Blanchette Dr,0
170,14342,CATAMI:7873,0,,3,4820,4820,42.7384182900354,-84.4806054852252,Mac / Elizabeth,0
171,16122,CATAMI:8130,0,,3,2546,2546,42.7514674281034,-84.49350173883616,Harrison / Gainsborough Dr,0
172,16069,CATAMI:9103,0,,3,2561,2561,42.75085589027527,-84.4936726096999,Harrison / Gainsborough Dr,0
173,15819,CATAMI:9104,0,,3,3893,3893,42.74825685450569,-84.49369059610662,Harrison / Woodingham Dr,0
174,15675,CATAMI:8128,0,,3,2544,2544,42.74682693517226,-84.49351972524288,Harrison / Pine Forest Dr,0
175,15638,CATAMI:10512,0,,3,3894,3894,42.74636828180115,-84.49372656892004,Harrison / Longfellow Dr,0
176,15331,CATAMI:9106,0,,3,3895,3895,42.74315770820345,-84.49371757571667,Harrison / Northlawn St,0
177,15322,CATAMI:8127,0,,3,2543,2543,42.74312173539003,-84.493573684463,Harrison / Northlawn St,0
178,15080,CATAMI:8126,0,,3,2542,2542,42.74059464524729,-84.49353771164958,Harrison / Wildwood Dr,0
179,14884,CATAMI:8125,0,,3,2837,2837,42.73852620847565,-84.49353771164958,Harrison / Grand River,0
180,14896,CATAMI:9237,0,,3,4699,4699,42.73824741917166,-84.49440105917165,Grand River / Harrison,0
181,14776,CATAMI:9108,0,,3,4070,4070,42.73736608524287,-84.49358267766635,Harrison / Grand River,0
182,21665,CATAMI:9473,0,,3,5798,5798,42.71773392231906,-84.63012648420424,Lccwest,0
183,14214,CATAMI:10221,0,,3,3417,3417,42.6997475156092,-84.53817097990009,Pennsylvania / Alden Dr,0
184,16932,CATAMI:9895,0,,3,1795,1795,42.6932634159903,-84.5822286831359,Pleasant Grove / Hillcrest S,0
185,23270,CATAMI:9971,0,,3,6125,6125,42.74112524424523,-84.63384067718982,Saginaw / Mall Dr,0
186,23680,CATAMI:10031,0,,3,6155,6155,42.74095437338149,-84.6399920282846,Saginaw / Creyts Rd,0
187,18953,CATAMI:9941,0,,3,1819,1819,42.74856262341976,-84.55676892443809,Walnut / Willow,0
188,16736,CATAMI:10306,0,,3,4478,4478,42.73431738930555,-84.53780225856254,Pennsylvania / Michigan,0
189,21139,CATAMI:9990,0,,3,1859,1859,42.7462603633609,-84.59620412114946,Morris / Timber Dr,0
190,12744,CATAMI:9301,0,,3,2730,2730,42.68551127469835,-84.2650473940109,Grand River / Skirting Av,0
191,24643,CATAMI:10442,0,,3,6153,6153,42.74098135299155,-84.65388652746796,Saginaw / Westshire Dr,0
192,17510,CATAMI:9278,0,,3,3040,3040,42.73260868066811,-84.55345942560348,Allegan / Capitol Ave,0
193,16557,CATAMI:8911,0,,3,2050,2050,42.72997367208512,-84.54072504965289,Kalamazoo / Hosmer,0
194,25146,CATAMI:10027,0,,3,6151,6151,42.74001908023258,-84.66186349884379,Canal / Saginaw Hwy,0
195,10969,CATAMI:10519,0,,3,4110,4110,42.71190632654507,-84.46055963494706,Mt Hope / Hagadorn Rd,0
196,12692,CATAMI:10140,0,,3,3373,3373,42.69136585008241,-84.52344011280472,Aurelius / Lourdes Ct,0
197,25004,CATAMI:9977,0,,3,6133,6133,42.73721320078584,-84.66208832892765,Canal / Merryman Way,0
198,24773,CATAMI:10025,0,,3,6149,6149,42.73323820490296,-84.66189047845386,Canal / Glen Terra,0
199,13780,CATAMI:7960,0,,3,2913,2913,42.74700679923936,-84.42632250977483,Haslett / N Okemos Rd,0
200,26279,CATAMI:10461,0,,3,6173,6173,42.73975827733528,-84.67801529206923,Delta Market / Migaldi Ln,0
201,25559,CATAMI:9983,0,,3,6139,6139,42.73161942829907,-84.67400432337294,Marketplace / Executive Ct,0
202,25571,CATAMI:10021,0,,3,6145,6145,42.73152949626552,-84.67422016025345,Marketplace / Executive Ct,0
203,25361,CATAMI:10022,0,,3,6146,6146,42.72739262272226,-84.6742291534568,Marketplace / St. Joseph Hwy,0
204,12522,CATAMI:10065,0,,3,3276,3276,42.66881089606825,-84.53825191873028,Pennsylvania / Miller Rd,0
205,16976,CATAMI:10425,0,,3,3465,3465,42.71234699350946,-84.56739889080362,MLK / Mt Hope Ave,0
206,19441,CATAMI:7693,0,,3,3680,3680,42.74095437338149,-84.57505210685865,Saginaw / Cawood St,0
207,26458,CATAMI:10464,0,,3,6174,6174,42.73992914819902,-84.6803984909583,Delta Market / Broadbent Rd,0
208,16639,CATAMI:9845,0,,3,5810,5810,42.72167294538852,-84.55244319362437,Washington / Elm,0
209,17786,CATAMI:9219,0,,3,5489,5489,42.66723708548113,-84.18763389953168,Grand River / Webberville,0
210,13826,CATAMI:9334,0,,3,2898,2898,42.72998266528847,-84.48771011587559,Chestnut Rd / Dem. Hall,0
211,17778,CATAMI:9216,0,,3,2727,2727,42.6671651398543,-84.18770584515852,Grand River Ave / Webberville,0
212,16820,CATAMI:9215,0,,3,5473,5473,42.66267753138019,-84.19820990667706,M-52 / Highview Rd.,0
213,14517,CATAMI:7874,0,,3,4821,4821,42.74020793750303,-84.48058749881848,Mac / Burcham,0
214,12751,CATAMI:9221,0,,3,5491,5491,42.6856012067319,-84.26502041440084,Grand River / Skirting Av,0
215,11499,CATAMI:10161,0,,3,6048,6048,42.66926954943935,-84.52426748751337,Miller / Aurelius,0
216,11979,CATAMI:9300,0,,3,4018,4018,42.68831715414509,-84.27889692717748,Grand River / Water St,0
217,18235,CATAMI:8094,0,,3,4496,4496,42.75180916983089,-84.53852171483094,North / High St,0
218,11575,CATAMI:9223,0,,3,2735,2735,42.68876681431284,-84.28553391125342,Grand River Ave / Jackson,0
219,14581,CATAMI:10077,0,,3,5691,5691,42.66327108280161,-84.5677226461244,Edgewood / Edgewood Villas,0
220,11582,CATAMI:9299,0,,3,5597,5597,42.6887128550927,-84.28534505398298,Grand River after Jackson,0
221,14061,CATAMI:8073,0,,3,2536,2536,42.73543254652157,-84.48085729491913,Albert / Mac,0
222,16967,CATAMI:10336,0,,3,3479,3479,42.71169048966455,-84.56789351698814,S MLK / Mt Hope Ave,0
223,7148,CATAMI:9169,0,,3,3993,3993,42.68382055246762,-84.432356949226,Okemos / W Jolly Rd,0
224,24788,CATAMI:9978,0,,3,6134,6134,42.73322021849625,-84.66211530853772,Canal / Michigan Ave,0
225,9716,CATAMI:10536,0,,3,5817,5817,42.70240950380227,-84.34237994965993,Grand River / Burkley Rd,0
226,15498,CATAMI:9627,0,,3,6091,6091,42.71189733334171,-84.54532956977062,Mt. Hope / Ray,0
227,12184,CATAMI:9450,0,,3,5803,5803,42.71699647964396,-84.47804242226904,Farm Lane / Green Way Dr.,0
228,26051,CATAMI:10802,0,,3,6142,6142,42.74280697327261,-84.67245749239589,Commercial Drive / Marketplace Blvd,0
229,8898,CATAMI:9159,0,,3,2676,2676,42.70437901533699,-84.41041353303997,Dobie / Hatch Rd,0
230,12835,CATAMI:7906,0,,3,2586,2586,42.72517130149359,-84.47507466516191,S Shaw / Chemistry,0
231,20799,CATAMI:7998,0,,3,3758,3758,42.76133297218376,-84.57125697504287,Grand River / Cynwood St,0
232,7770,CATAMI:7931,0,,3,4138,4138,42.69442353922309,-84.40734685069594,Carriage Lane,0
233,16707,CATAMI:10044,0,,3,5443,5443,42.72830992946446,-84.5454734610243,Cedar / Kalamazoo,0
234,6829,CATAMI:7927,0,,3,4614,4614,42.6856012067319,-84.41033259420978,Dobie / Jolly Rd,0
235,8188,CATAMI:9160,0,,3,4618,4618,42.69793988173486,-84.41044051265004,Dobie / Kinawa Dr,0
236,13429,CATAMI:8621,0,,3,2570,2570,42.72252729970724,-84.49396938541062,Harrison Rd / Sever Dr,0
237,6751,CATAMI:9165,0,,3,3988,3988,42.6848817504635,-84.4104674922601,Dobie / E Jolly Rd,0
238,6739,CATAMI:9166,0,,3,2684,2684,42.68306512338581,-84.42065679166123,Jolly / Fairhills Dr,0
239,6904,CATAMI:9167,0,,3,4620,4620,42.68299317775897,-84.42721283690697,Jolly / Alaiedon,0
240,7653,CATAMI:7930,0,,3,4619,4619,42.69322744317688,-84.40889368167299,Ingham Cty Care Facility,0
241,23956,CATAMI:10030,0,,3,6154,6154,42.74099034619491,-84.64397601737083,Saginaw / Creyts Rd,0
242,18613,CATAMI:8989,0,,3,4764,4764,42.72450580444532,-84.58016923956761,William / Buffalo,0
243,8947,CATAMI:7919,0,,3,2880,2880,42.70113246892586,-84.4324378880562,Okemos / Sower Blvd,0
244,12557,CATAMI:10695,0,,3,1698,1698,42.72839086829465,-84.45884193310626,Gr. River Ave / Maplewood Dr,0
245,8554,CATAMI:9173,0,,3,2695,2695,42.69741827594028,-84.43232097641258,Okemos / Kinawa Dr,0
246,7914,CATAMI:9172,0,,3,2692,2692,42.69127591804886,-84.43233896281929,Okemos / Tamarack Dr,0
247,17904,CATAMI:8676,0,,3,2801,2801,42.74787913996478,-84.53862064006783,High / E Grand River Ave,0
248,7684,CATAMI:9171,0,,3,5694,5694,42.68904560361684,-84.432356949226,Okemos / Fox Hollow,0
249,9585,CATAMI:9175,0,,3,2698,2698,42.70720288119044,-84.43227601039581,Okemos / Science Pkwy,0
250,21264,CATAMI:9954,0,,3,1832,1832,42.74796907199833,-84.59624908716623,Morris / Willow St,0
251,7029,CATAMI:9168,0,,3,5637,5637,42.68297519135226,-84.43132273084018,Jolly / Okemos,0
252,12590,CATAMI:9184,0,,3,4533,4533,42.72562995486469,-84.4676732588008,Shaw / Conrad,0
253,15901,CATAMI:9853,0,,3,1754,1754,42.70500853957184,-84.55831575541514,Washington / Greenlawn Av,0
254,13065,CATAMI:10384,0,,3,4395,4395,42.6693594814729,-84.5451137328901,Miller / Cedar St,0
255,17228,CATAMI:9036,0,,3,3731,3731,42.75162031256043,-84.51852982377292,Hayford / Ridgeline Dr,0
256,7418,CATAMI:9163,0,,3,2678,2678,42.69094316952473,-84.41044950585339,Dobie / Sashabaw Rd,0
257,19490,CATAMI:9944,0,,3,1822,1822,42.7483557797426,-84.56642762484128,Willow / Lansing Ave,0
258,20839,CATAMI:9958,0,,3,1836,1836,42.74109826463517,-84.59715740070507,Saginaw / Morris Ave,0
259,16890,CATAMI:10714,0,,3,1642,1642,42.7300186381019,-84.54635479495307,Kalamazoo / S Cedar St,0
260,16149,CATAMI:9041,0,,3,4695,4695,42.74346347711752,-84.51135324749569,Chester / Grand River,0
261,13747,CATAMI:10689,0,,3,1654,1654,42.73340008256335,-84.47792551062543,Gr. River Ave / Division St,0
262,16892,CATAMI:8941,0,,3,2464,2464,42.75527155312253,-84.50337627611987,Coolidge / N Shore Dr,0
263,12121,CATAMI:9448,0,,3,4810,4810,42.71409167496032,-84.4825210375398,Commuter Lot 89-1,0
264,17666,CATAMI:8999,0,,3,3685,3685,42.74081048212781,-84.54500581444984,Saginaw / Larch Street,0
265,11895,CATAMI:10645,0,,3,178,178,42.71298551094766,-84.47985904934673,Commuter Lot 89-4,0
266,9526,CATAMI:7918,0,,3,2867,2867,42.70661832297237,-84.4324378880562,Okemos / Science Pkwy,0
267,10409,CATAMI:10266,0,,3,4773,4773,42.64014056377273,-84.52281958177323,Holt Rd / Aurelius,0
268,17155,CATAMI:9868,0,,3,1769,1769,42.68678830957475,-84.5893692865997,Reo / Ingham St,0
269,21909,CATAMI:8004,0,,3,2410,2410,42.76061351591537,-84.5914647029814,Delta Riverpast Northwest Ave,0
270,10892,CATAMI:9288,0,,3,4683,4683,42.72241938126698,-84.410287628193,Central Park / Newman,0
271,18809,CATAMI:8336,0,,3,4634,4634,42.73232089816076,-84.57490821560498,McPherson / Washtenaw,0
272,11739,CATAMI:9495,0,,3,5714,5714,42.71205021779875,-84.4783302047764,Farm / Mt Hope,0
273,15953,CATAMI:8890,0,,3,4803,4803,42.74162886363311,-84.51072372326085,Howard / Grand River,0
274,7298,CATAMI:9170,0,,3,2691,2691,42.68527745141112,-84.43236594242936,Okemos / Jolly Oak Rd,0
275,12686,CATAMI:9483,0,,3,6046,6046,42.71410966136703,-84.49399636502068,Harrison / S Crescent,0
276,11416,CATAMI:10792,0,,3,1715,1715,42.72360648410983,-84.43583731892436,Gr. River / Montrose Av,0
277,10873,CATAMI:10634,0,,3,195,195,42.71174444888468,-84.45844623215865,Mt Hope / Hagadorn,0
278,12251,CATAMI:8856,0,,3,2859,2859,42.70916339952181,-84.49380750775023,Harrison Rd / Forest Acres,0
279,21455,CATAMI:9571,0,,3,5931,5931,42.72659222762367,-84.62017100809034,St Joseph / Snow,0
280,8450,CATAMI:7920,0,,3,2881,2881,42.69638405755446,-84.43246486766625,Okemos / Bennett Rd,0
281,13464,CATAMI:10062,0,,3,6158,6158,42.6749262743496,-84.54716418325502,Cedar / Kaynorth,0
282,12228,CATAMI:9674,0,,3,4852,4852,42.70451391338732,-84.50044449182616,Forest / Alliance,0
283,11620,CATAMI:8854,0,,3,5938,5938,42.69802981376841,-84.49878074920551,Collins / MSU Horse Farms,0
284,11026,CATAMI:9588,0,,3,5989,5989,42.69012478801943,-84.49884370162899,Collins / Dunkel,0
285,17536,CATAMI:9071,0,,3,5649,5649,42.7439850829121,-84.53787420418938,Pennsylvania / Oakland,0
286,10843,CATAMI:10628,0,,3,4346,4346,42.6829482117422,-84.50381694308426,Jolly / Pine Tree Rd,0
287,13316,CATAMI:8726,0,,3,4645,4645,42.73126869336823,-84.47215187407156,Bogue / Grand River,0
288,12595,CATAMI:9607,0,,3,6097,6097,42.70469377745442,-84.50659584292093,Forest / Staten,0
289,11712,CATAMI:8850,0,,3,4473,4473,42.6875167590465,-84.51243243189829,Trappers Cove / Dunckel 2,0
290,16153,CATAMI:9848,0,,3,1750,1750,42.71478415161864,-84.55242520721765,Washington / Barnes Ave,0
291,11053,CATAMI:10156,0,,3,5748,5748,42.68505262132725,-84.50487814108014,Trappers Cove / Dunckel 4,0
292,13194,CATAMI:10228,0,,3,4379,4379,42.68256150399794,-84.53826091193365,Pennsylvania / Jolly Rd,0
293,13876,CATAMI:10482,0,,3,1915,1915,42.68189600694967,-84.54818940843748,Cedar / E Jolly Rd,0
294,9779,CATAMI:7917,0,,3,2866,2866,42.70900152186142,-84.43242889485283,Okemos / Kewanee Way,0
295,19596,CATAMI:8415,0,,3,2305,2305,42.74126913549891,-84.57720148246048,Cleo / Saginaw,0
296,11519,CATAMI:10629,0,,3,48,48,42.68445007670247,-84.51254035033854,Beaujardin / Dunckel,0
297,16433,CATAMI:7897,0,,3,5994,5994,42.75912064415844,-84.48146883274727,Lake Lansing / Harkson,0
298,17976,CATAMI:10709,0,,3,1626,1626,42.7373211192261,-84.5552490730711,Shiawassee / Seymour St,0
299,13448,CATAMI:10778,0,,3,2599,2599,42.73607106395976,-84.46210646592411,Hagadorn / Linden St,0
300,11441,CATAMI:10152,0,,3,3378,3378,42.68225573508387,-84.51341269106398,Dunckel / Jolly,0
301,11466,CATAMI:8849,0,,3,2995,2995,42.68748078623308,-84.50870924570934,Trappers Cove / Dunckel,0
302,13015,CATAMI:10133,0,,3,3366,3366,42.70364157266189,-84.5150224744645,Stoneleigh / Forest Rd,0
303,18130,CATAMI:8323,0,,3,4711,4711,42.69768807204093,-84.59560157652467,Holmes / Lawdor,0
304,12971,CATAMI:10187,0,,3,3391,3391,42.70316493288408,-84.51490556282089,Stoneleigh / Tammany Ave,0
305,12845,CATAMI:10186,0,,3,3390,3390,42.70145622424664,-84.51489656961753,Stoneleigh / Fireside Dr,0
306,11673,CATAMI:8634,0,,3,5934,5934,42.69861437198648,-84.49893363366253,Collins / MSU Horse Farms,0
307,15966,CATAMI:7893,0,,3,2521,2521,42.75832924226321,-84.46952585869192,Birch Row / Gibson Ave,0
308,15038,CATAMI:8926,0,,3,2455,2455,42.72992870606834,-84.51316088137004,Kalamazoo / Charles St,0
309,12626,CATAMI:10136,0,,3,3369,3369,42.69672579928195,-84.5168570879489,Provincial House / Stoneleigh,0
310,12541,CATAMI:10184,0,,3,3389,3389,42.69669881967188,-84.51554408025909,Stoneleigh / Prov. House,0
311,15709,CATAMI:10301,0,,3,3540,3540,42.72109738037381,-84.53794614981622,Pennsylvania / Haco Dr,0
312,15494,CATAMI:8906,0,,3,5578,5578,42.72998266528847,-84.52171341776057,Kalamazoo / Magnolia,0
313,7044,CATAMI:9164,0,,3,3987,3987,42.68754373865657,-84.41044950585339,Dobie / Algoma Dr,0
314,13247,CATAMI:9633,0,,3,2003,2003,42.70462183182757,-84.5176574830475,Forest / Aurora Dr,0
315,11765,CATAMI:10160,0,,3,4585,4585,42.68297519135226,-84.51752258499718,Jolly / Five Oaks Dr,0
316,17128,CATAMI:10361,0,,3,5585,5585,42.66915263779573,-84.59783189095668,Miller / Coachlight,0
317,10538,CATAMI:10271,0,,3,3328,3328,42.64699338472919,-84.52254978567258,Cedar St / Keller Rd,0
318,18606,CATAMI:9881,0,,3,4428,4428,42.68837111336522,-84.60773340785046,Seaway / Burneway Dr,0
319,14559,CATAMI:9610,0,,3,6098,6098,42.71201424498533,-84.5301670289142,Mt. Hope / Lindbergh,0
320,14111,CATAMI:9631,0,,3,3363,3363,42.71153760520752,-84.52335018077117,Aurelius / E Mt Hope Ave,0
321,17999,CATAMI:10723,0,,3,1604,1604,42.74108927143181,-84.55050965490305,Grand / Saginaw St,0
322,10927,CATAMI:9230,0,,3,5500,5500,42.72275212979111,-84.41014373693932,Central Park / Newman,0
323,12928,CATAMI:10182,0,,3,3388,3388,42.69506205666129,-84.52331420795775,Aurelius / Irvington Ave,0
324,12968,CATAMI:10069,0,,3,5684,5684,42.66399953227337,-84.54663358425708,Edgewood / Southbrook Apts,0
325,12806,CATAMI:10181,0,,3,3387,3387,42.69321844997353,-84.52333219436446,Aurelius / Luwanna Rd,0
326,15238,CATAMI:8905,0,,3,3831,3831,42.73003662450861,-84.51682111513549,Kalamazoo / S Francis Ave,0
327,24957,CATAMI:10028,0,,3,6152,6152,42.74095437338149,-84.65841010875549,Saginaw / Vermillion Dr,0
328,17923,CATAMI:8146,0,,3,6036,6036,42.7659734651149,-84.50334929650981,Coolidge / Watertower Place,0
329,12793,CATAMI:10139,0,,3,3372,3372,42.69291268105946,-84.52343111960137,Aurelius / Luwanna Dr,0
330,12908,CATAMI:7866,0,,3,4544,4544,42.72313883753537,-84.48141487352713,Wilson / Red Cedar Rd,0
331,13807,CATAMI:9519,0,,3,2915,2915,42.72978481481466,-84.48771011587559,Chestnut / Dem Hall Dr.,0
332,12795,CATAMI:7867,0,,3,4546,4546,42.72312984433202,-84.47881583775757,Wilson / Farm Ln,0
333,12655,CATAMI:10180,0,,3,3386,3386,42.69094316952473,-84.52329622155104,Aurelius / Cavanaugh Rd,0
334,17300,CATAMI:9834,0,,3,1745,1745,42.73369685827406,-84.54849517735155,Michigan / Museum Drive,0
335,17909,CATAMI:9686,0,,3,6120,6120,42.76079337998246,-84.51487858321083,Lake Lansing / Preyde,0
336,12588,CATAMI:10141,0,,3,3374,3374,42.68975606668188,-84.52343111960137,Aurelius / Cavanaugh Rd,0
337,12382,CATAMI:10142,0,,3,3375,3375,42.6864195882372,-84.52345809921142,Aurelius / Irene St,0
338,11372,CATAMI:9182,0,,3,2592,2592,42.71544964866691,-84.46198056107714,Hagadorn / Glenwood Apt.,0
339,7353,CATAMI:7923,0,,3,2883,2883,42.68577207759564,-84.43250983368303,Okemos / Jolly Oaks Rd,0
340,11076,CATAMI:10157,0,,3,5749,5749,42.68453101553266,-84.50575947500893,Beaujardin / Trappers Cove,0
341,11548,CATAMI:10568,0,,3,6108,6108,42.67150885707473,-84.52344910600807,Aurelius / Enterprise Dr,0
342,11473,CATAMI:10238,0,,3,3280,3280,42.653855198889,-84.5319027171617,Cedar / Willoughby Rd,0
343,20096,CATAMI:9997,0,,3,3192,3192,42.74828383411575,-84.57682376791958,Willow / Cleo,0
344,9818,CATAMI:9176,0,,3,5379,5379,42.70939722280905,-84.43228500359916,Okemos / Kewanee,0
345,19345,CATAMI:8419,0,,3,3656,3656,42.73391269515458,-84.58159016569769,Michigan / Clare St,0
346,15271,CATAMI:10216,0,,3,4368,4368,42.71500898170252,-84.5381889663068,Pennsylvania / Motor Ave,0
347,13320,CATAMI:9220,0,,3,5640,5640,42.68364068840053,-84.255370707201,Grand River / Sky Way,0
348,10934,CATAMI:10240,0,,3,3282,3282,42.6494665156518,-84.52670464562256,Cedar / Fay Ave,0
349,9670,CATAMI:9157,0,,3,3983,3983,42.71135774114042,-84.41044051265004,Dobie / Forest Hills,0
350,11546,CATAMI:8690,0,,3,5730,5730,42.72783328968665,-84.41622314240726,Central Park / Marsh,0
351,15528,CATAMI:8958,0,,3,3867,3867,42.74922812046803,-84.48379807241619,Abbot / Loree Dr,0
352,10610,CATAMI:10241,0,,3,3283,3283,42.64675056823861,-84.52353903804162,Aurelius / Spahr Ave,0
353,17037,CATAMI:9623,0,,3,6111,6111,42.71196927896855,-84.56866693247666,Mt Hope / MLK,0
354,21401,CATAMI:9570,0,,3,5992,5992,42.7224553540804,-84.62278803026662,Snow / Aspen,0
355,17101,CATAMI:8881,0,,3,2468,2468,42.7573939491143,-84.50350218096685,Coolidge / Ramblewood Dr,0
356,15138,CATAMI:9612,0,,3,6100,6100,42.71203223139204,-84.53948398758992,Mt. Hope / Donora,0
357,15171,CATAMI:9628,0,,3,6092,6092,42.71187035373165,-84.54021243706165,Mt. Hope / Donora,0
358,18844,CATAMI:10664,0,,3,118,118,42.66648165639932,-84.17399121004225,Main / Grand River,0
359,19349,CATAMI:9666,0,,3,3753,3753,42.75380566097568,-84.55621134583008,Grand River / Seager St,0
360,15022,CATAMI:10217,0,,3,53,53,42.71151062559745,-84.53824292552693,Penn / Mt Hope,0
361,16112,CATAMI:9009,0,,3,2351,2351,42.74308576257661,-84.51129928827557,Chester / E Grand River Ave,0
362,19523,CATAMI:7692,0,,3,3679,3679,42.74038780157013,-84.57705759120681,Verlinden / Genesee Dr,0
363,10271,CATAMI:9294,0,,3,4004,4004,42.68936935893762,-84.30733343618577,Grand River / Lay Ave,0
364,12082,CATAMI:10564,0,,3,2014,2014,42.68284029330194,-84.52225300996187,Jolly / Aurelius Rd,0
365,14803,CATAMI:10296,0,,3,3535,3535,42.70859682771045,-84.53803608184977,Pennsylvania / Pacific Av,0
366,15608,CATAMI:10797,0,,3,1736,1736,42.73367887186735,-84.51791828594479,Michigan / Foster Ave,0
367,14546,CATAMI:10295,0,,3,3534,3534,42.70485565511481,-84.53805406825647,Penn / Health Care Dr.,0
368,11324,CATAMI:10524,0,,3,3380,3380,42.68443209029576,-84.50962655245155,Beau Jardin / Belle Chase,0
369,17349,CATAMI:10671,0,,3,1672,1672,42.73346303498683,-84.54963731417763,Michigan / Grand Ave,0
370,16125,CATAMI:9858,0,,3,1760,1760,42.69758914680402,-84.56785754417471,Holmes / MLK,0
371,16945,CATAMI:9864,0,,3,1764,1764,42.69332636841379,-84.58237257438957,Pleasant Grove / Wadsworth,0
372,11181,CATAMI:10239,0,,3,4734,4734,42.65133710194962,-84.5291507969351,Cedar / Delhi Commerce,0
373,14006,CATAMI:10293,0,,3,4390,4390,42.69670781287524,-84.53797312942628,Pennsylvania / Vernon Ave,0
374,12620,CATAMI:9634,0,,3,6095,6095,42.70454089299738,-84.50723436035913,Forest / Staten,0
375,13909,CATAMI:10223,0,,3,4374,4374,42.69495413822103,-84.53816198669674,Pennsylvania / Irvington Ave,0
376,13010,CATAMI:7943,0,,3,87,87,42.72611558784585,-84.4771520951369,Shaw / Farm Lane,0
377,21028,CATAMI:9951,0,,3,1830,1830,42.74841873216608,-84.59194134275921,Willow / Boynton Dr,0
378,17410,CATAMI:9869,0,,3,1770,1770,42.68678830957475,-84.59276871746786,Reo Rd / Wainwright Ave,0
379,13889,CATAMI:10292,0,,3,2182,2182,42.69484621978077,-84.53797312942628,Pennsylvania / Irvington Ave,0
380,15356,CATAMI:10098,0,,3,3347,3347,42.70730180642735,-84.54793759874354,Cedar / Tisdale Ave,0
381,11604,CATAMI:8689,0,,3,6080,6080,42.7276624188229,-84.42227556826512,Central Park / Mall Entrance Dr.,0
382,14996,CATAMI:9611,0,,3,6099,6099,42.71203223139204,-84.53722669354782,Mt. Hope / Alpha,0
383,13619,CATAMI:10290,0,,3,3528,3528,42.69038559091673,-84.53798212262964,Pennsylvania / Cavanaugh,0
384,14460,CATAMI:8716,0,,3,2849,2849,42.74700679923936,-84.45823039527812,Haslett / Ferndale Ave,0
385,13601,CATAMI:10225,0,,3,4376,4376,42.6898909647322,-84.53817097990009,Pennsylvania / Cavanaugh,0
386,21052,CATAMI:9956,0,,3,1834,1834,42.74491138285766,-84.59633901919977,Morris / Sylvan Ave,0
387,15566,CATAMI:10123,0,,3,3795,3795,42.72294098706156,-84.53315277242804,Holmes / Hazel St,0
388,13065,CATAMI:10114,0,,3,5673,5673,42.68498966890377,-84.5345377257447,Tranter / Rensen,0
389,19155,CATAMI:8773,0,,3,3616,3616,42.7089475626413,-84.6016809819926,Moores River / Waverly Rd,0
390,18683,CATAMI:7990,0,,3,3750,3750,42.750190393227,-84.5495024161273,Turner / Beaver St,0
391,15062,CATAMI:8904,0,,3,5636,5636,42.73005461091532,-84.51339470465726,Kalamazoo / Charles,0
392,13217,CATAMI:10287,0,,3,3525,3525,42.68327196706297,-84.53804507505312,Pennsylvania / Jolly Rd,0
393,12901,CATAMI:10138,0,,3,3371,3371,42.69454944407006,-84.52343111960137,Aurelius / Irvington Ave,0
394,20316,CATAMI:8427,0,,3,3665,3665,42.72718577904509,-84.60307492851261,Waverly / St Joseph St,0
395,17832,CATAMI:9032,0,,3,3727,3727,42.75668348604926,-84.52154254689682,Tulane / Northampton Way,0
396,17158,CATAMI:10335,0,,3,5894,5894,42.7146942195851,-84.56787553058142,MLK / Barnes,0
397,13017,CATAMI:10285,0,,3,3523,3523,42.67945884884048,-84.53809004106989,Pennsylvania / Dennis St,0
398,11324,CATAMI:8853,0,,3,5937,5937,42.69419870913921,-84.49875376959544,Collins / Technology (South Drive),0
399,11706,CATAMI:9685,0,,3,6114,6114,42.72886750807246,-84.42011719945994,Central Park / Farmer's Market,0
400,9081,CATAMI:10635,0,,3,6077,6077,42.70240051059891,-84.4324738608696,Okemos / Sower Blvd 2,0
401,14979,CATAMI:9629,0,,3,6093,6093,42.71187035373165,-84.53715474792098,Mt. Hope / Pennsylvania,0
402,18308,CATAMI:8408,0,,3,3643,3643,42.74356240235442,-84.55247916643778,Oakland / Washington Av,0
403,12561,CATAMI:10281,0,,3,3520,3520,42.67003397172452,-84.53805406825647,Pennsylvania / Miller,0
404,11094,CATAMI:9181,0,,3,5378,5378,42.71262578281346,-84.46195358146707,Hagadorn / Mt Hope,0
405,12015,CATAMI:10236,0,,3,3279,3279,42.65864857627718,-84.53680401299015,Cedar / Long Blvd,0
406,25335,CATAMI:9982,0,,3,6138,6138,42.72717678584173,-84.67401331657629,Marketplace / St. Joseph Hwy,0
407,18049,CATAMI:8092,0,,3,4494,4494,42.75180017662753,-84.53490644708225,North / Vermont Ave,0
408,7057,CATAMI:7928,0,,3,2682,2682,42.68767863670689,-84.41029662139636,Dobie / Algoma Dr,0
409,18936,CATAMI:8330,0,,3,5741,5741,42.72416406271784,-84.58538529751347,Main / Bridge St,0
410,13239,CATAMI:8622,0,,3,3902,3902,42.72041389691883,-84.49397837861397,Harrison / Trowbridge Rd,0
411,14736,CATAMI:8068,0,,3,4842,4842,42.74540600904218,-84.47234073134202,Alton Street / Whitehills,0
412,15703,CATAMI:10100,0,,3,3349,3349,42.71296752454095,-84.54736203372883,Cedar / Norman St,0
413,18499,CATAMI:8682,0,,3,5698,5698,42.76062250911872,-84.52811657854929,Lake Lansing / Chamberlain,0
414,13779,CATAMI:10224,0,,3,4375,4375,42.69285872183933,-84.53815299349338,Pennsylvania / Maplehill,0
415,15681,CATAMI:9626,0,,3,2868,2868,42.71192431295178,-84.54813544921736,Mt Hope / Cedar,0
416,12096,CATAMI:10278,0,,3,3333,3333,42.65976373349319,-84.53735259839479,Cedar / Roth Dr,0
417,9820,CATAMI:9292,0,,3,4003,4003,42.71204122459539,-84.37739948352403,Grand River / Van Atta,0
418,11234,CATAMI:10158,0,,3,5750,5750,42.68412632138169,-84.50856535445567,Belle Chase / Beau Jardin,0
419,20850,CATAMI:9988,0,,3,1857,1857,42.74213248302098,-84.59622210755616,Morris / Upton Rd,0
420,13248,CATAMI:10080,0,,3,5723,5723,42.66194008870508,-84.55121112476473,Edgewood / Celebration Dr,0
421,15527,CATAMI:10099,0,,3,3348,3348,42.70990084219692,-84.54791061913348,Cedar / Riley St,0
422,15179,CATAMI:10097,0,,3,4460,4460,42.70462183182757,-84.54792860554019,Cedar / Park Blvd,0
423,15027,CATAMI:10096,0,,3,3345,3345,42.7022026601251,-84.54796457835361,Cedar / Paris Ave,0
424,11029,CATAMI:10273,0,,3,3330,3330,42.65027590395374,-84.52762195236475,Cedar St / Fay Ave,0
425,21987,CATAMI:8512,0,,3,3777,3777,42.76549682533709,-84.58630260425568,Grand River / Grandell Av,0
426,11478,CATAMI:10154,0,,3,5746,5746,42.68742682701295,-84.50895206219992,Trappers Cove / Dunckel 2,0
427,22795,CATAMI:10034,0,,3,4767,4767,42.7406935704842,-84.6272216795206,Frontage Road / Barbara,0
428,17900,CATAMI:8949,0,,3,5986,5986,42.77212481620968,-84.48589348879788,Coleman / The Club,0
429,17611,CATAMI:10503,0,,3,6008,6008,42.76999342701455,-84.4836991471793,Chandler / Coleman,0
430,14146,CATAMI:10190,0,,3,3394,3394,42.71213115662894,-84.52318830311079,Aurelius / Mt Hope Ave,0
431,21772,CATAMI:8513,0,,3,3778,3778,42.76472340984856,-84.58361363645255,Grand River / Benton Blvd,0
432,14895,CATAMI:10095,0,,3,3344,3344,42.70015220976018,-84.54792860554019,Cedar / Brookland Blvd,0
433,8149,CATAMI:7921,0,,3,6074,6074,42.69348824607417,-84.43249184727632,Okemos / Club Meridian,0
434,14902,CATAMI:10192,0,,3,3833,3833,42.72114234639058,-84.52408762344628,Perkins / Regent St,0
435,13838,CATAMI:8869,0,,3,4760,4760,42.72723074506187,-84.49360965727642,Harrison / Kalamazoo,0
436,14583,CATAMI:10093,0,,3,3342,3342,42.69497212462774,-84.54799155796367,Cedar / Hunter Blvd,0
437,16358,CATAMI:8919,0,,3,3355,3355,42.7298387740348,-84.5374515236317,Kalamazoo / S Pennsylvania,0
438,14420,CATAMI:10055,0,,3,3268,3268,42.69204933353738,-84.54811746281064,Cedar / E Mason St,0
439,10305,CATAMI:10270,0,,3,3327,3327,42.64497890717769,-84.52025651881708,Cedar St / North St,0
440,12710,CATAMI:7907,0,,3,2844,2844,42.72566592767811,-84.47070396833142,Shaw / Bogue,0
441,15880,CATAMI:9905,0,,3,1804,1804,42.70276923193646,-84.56003345725593,Washington / Dunlap St,0
442,13432,CATAMI:9516,0,,3,5685,5685,42.72408312388765,-84.49107357393032,Birch / Wonders Halls,0
443,10728,CATAMI:10244,0,,3,4769,4769,42.64026646861971,-84.52674961163933,Holt Road / Adelphe,0
444,18643,CATAMI:8325,0,,3,4713,4713,42.69771505165099,-84.60257130912474,Holmes / Waverly,0
445,16749,CATAMI:9893,0,,3,1793,1793,42.68948627058123,-84.5822646559493,Pleasant Grove / Risdale St,0
446,10718,CATAMI:9668,0,,3,45,45,42.68587100283255,-84.49878974240886,Collins Rd / Post Office,0
447,14522,CATAMI:7878,0,,3,4824,4824,42.74345448391416,-84.47187308476755,Alton Across St. Thomas,0
448,13717,CATAMI:10087,0,,3,4457,4457,42.67906314789287,-84.54795558515025,Cedar / Armstrong Rd,0
449,12721,CATAMI:9185,0,,3,4537,4537,42.72577384611837,-84.47071296153477,Shaw / Bogue,0
450,14654,CATAMI:10220,0,,3,4371,4371,42.70627658124489,-84.53821594591686,Pennsylvania / Tisdale,0
451,17930,CATAMI:10357,0,,3,3502,3502,42.68029521675249,-84.60312888773274,Waverly / Hartford Rd,0
452,9699,CATAMI:9293,0,,3,5818,5818,42.70240950380227,-84.34280263021762,Grand River / Burkly,0
453,11330,CATAMI:8635,0,,3,5935,5935,42.69417172952915,-84.49889766084912,Collins / Technology Dr (South),0
454,15737,CATAMI:10344,0,,3,3489,3489,42.69066438022072,-84.5676417072942,MLK / Mary Ave,0
455,18752,CATAMI:8775,0,,3,5759,5759,42.71206820420546,-84.59351515334633,Mt Hope / Grand Haven Apts,0
456,18931,CATAMI:8327,0,,3,3614,3614,42.70281419795324,-84.60303895569919,Waverly / Sandhurst Dr,0
457,14963,CATAMI:9125,0,,3,3840,3840,42.74354441594771,-84.48367216756922,Abbot / Library Ln,0
458,10121,CATAMI:10269,0,,3,4452,4452,42.64330617135367,-84.51843989173938,Cedar / Decamp Ave,0
459,15964,CATAMI:9850,0,,3,1751,1751,42.71133076153036,-84.55311768387598,Washington / Mt Hope Av,0
460,16859,CATAMI:9865,0,,3,1765,1765,42.6915277277428,-84.58239955399964,Pleasant Grove / Mary,0
461,20758,CATAMI:8518,0,,3,3782,3782,42.76110814209989,-84.57084328768855,Grand River / Cynwood St,0
462,16425,CATAMI:10304,0,,3,3543,3543,42.7303783662361,-84.53789219059608,Pennsylvania / Kalamazoo,0
463,15874,CATAMI:9903,0,,3,1802,1802,42.69867732440997,-84.56341490171738,Washington / Berry Ave,0
464,23380,CATAMI:10032,0,,3,6156,6156,42.74096336658484,-84.63559435184403,Saginaw / Stone Ridge Dr,0
465,15915,CATAMI:10397,0,,3,4564,4564,42.66930552225277,-84.5822286831359,Miller / Grovenberg Rd,0
466,19307,CATAMI:8991,0,,3,4864,4864,42.71985631831082,-84.59489111345962,Old Lansing / Lansing Rd,0
467,15889,CATAMI:8059,0,,3,4834,4834,42.75823931022966,-84.46724158503977,Birch Row / Hardy,0
468,16635,CATAMI:9892,0,,3,1792,1792,42.68699515325191,-84.58228264235602,Pleasant Grove / Reo Rd,0
469,13387,CATAMI:10561,0,,3,160,160,42.68180607491612,-84.54151645154812,Community Mental Health,0
470,6442,CATAMI:9193,0,,3,5467,5467,42.57788061694657,-84.44322073887875,Jefferson / Oak,0
471,14482,CATAMI:10389,0,,3,4560,4560,42.6693594814729,-84.56368469781802,Miller / Washington,0
472,12269,CATAMI:9804,0,,3,1718,1718,42.72714980623167,-84.45378775282079,Gr. River / Northwind D,0
473,16172,CATAMI:10349,0,,3,3494,3494,42.68312807580929,-84.57844254452347,Jolly / Hughes Rd,0
474,15642,CATAMI:8922,0,,3,4856,4856,42.7299376992717,-84.52451030400395,Kalamazoo / Leslie,0
475,17221,CATAMI:8050,0,,3,3887,3887,42.76073942076233,-84.49848397349479,Lake Lansing Rd / Marfitt Rd,0
476,15404,CATAMI:10718,0,,3,4570,4570,42.68382954567098,-84.56770465971768,MLK / Jolly Rd,0
477,12049,CATAMI:9449,0,,3,4811,4811,42.71332725267515,-84.48247607152302,Commuter Lot 89-2,0
478,17120,CATAMI:10541,0,,3,7,7,42.72930817503686,-84.55111219952784,CATA Trans Center,0
479,15655,CATAMI:10396,0,,3,4742,4742,42.66928753584606,-84.57889220469121,Miller / Woodgate,0
480,13441,CATAMI:9465,0,,3,4815,4815,42.72411909670106,-84.49121746518401,Birch / Wilson,0
481,6537,CATAMI:9190,0,,3,5469,5469,42.58216138174351,-84.45210602379342,Columbia / Cedar,0
482,12963,CATAMI:10113,0,,3,5950,5950,42.68318203502943,-84.53454671894805,Tranter / Jolly,0
483,15702,CATAMI:10798,0,,3,1737,1737,42.73368786507071,-84.51969894020907,Michigan / Magnolia Av,0
484,14931,CATAMI:8934,0,,3,6045,6045,42.73371484468077,-84.50431156926878,Michigan / Morgan,0
485,18182,CATAMI:8787,0,,3,3607,3607,42.7037584843055,-84.59198630877599,Deerfield / Brisbane Dr,0
486,12044,CATAMI:10248,0,,3,3290,3290,42.63974486282512,-84.5431172417453,Eifert / W Holt Rd,0
487,15930,CATAMI:9857,0,,3,1758,1758,42.69758914680402,-84.56509663074475,Holmes / Washington Ave,0
488,14778,CATAMI:10219,0,,3,4370,4370,42.70803924910245,-84.53825191873028,Pennsylvania / Pacific Ave,0
489,12823,CATAMI:10134,0,,3,3367,3367,42.70106052329903,-84.51501348126115,Stoneleigh / Fireside Dr,0
490,11632,CATAMI:8851,0,,3,4474,4474,42.68980103269865,-84.50882615735296,Dunckel Rd / I-496 / 127,0
491,15469,CATAMI:10214,0,,3,4366,4366,42.71771593591235,-84.53817097990009,Pennsylvania after Fayette St,0
492,24005,CATAMI:10801,0,,3,6129,6129,42.74113423744858,-84.6445605755889,Saginaw / Brookside Dr,0
493,25587,CATAMI:9984,0,,3,6140,6140,42.73421846406865,-84.67250245841267,Marketplace / LAFCU,0
494,12136,CATAMI:10166,0,,3,6072,6072,42.66918861060915,-84.5328829763274,Miller / Beechfield,0
495,17275,CATAMI:10353,0,,3,3498,3498,42.68316404862271,-84.59303851356852,Jolly / Wainwright Ave,0
496,11422,CATAMI:7912,0,,3,4846,4846,42.7158093768011,-84.46239424843147,Hag Across from Glenwood Apt,0
497,14063,CATAMI:8900,0,,3,2842,2842,42.72920924979995,-84.49455394362869,Kalamazoo / Harrison,0
498,18167,CATAMI:10432,0,,3,3036,3036,42.73265364668489,-84.56424227642603,Allegan / Butler,0
499,16727,CATAMI:9867,0,,3,1768,1768,42.68675233676133,-84.58367658887603,Reo / Sidney St,0
500,16892,CATAMI:10409,0,,3,3449,3449,42.68302915057239,-84.58805627890989,Jolly / Ingham St,0
501,16797,CATAMI:10362,0,,3,5642,5642,42.67329850454236,-84.59177946509882,Hill Vocational Center,0
502,14544,CATAMI:9630,0,,3,6094,6094,42.71185236732494,-84.53013105610079,Mt. Hope / Lindbergh,0
503,17968,CATAMI:8789,0,,3,5757,5757,42.69968456318572,-84.59199530197934,Deerfield / Herrick,0
504,11878,CATAMI:10569,0,,3,6109,6109,42.67784906543995,-84.52341313319465,Aurelius / Ingham County Road Department,0
505,13507,CATAMI:10289,0,,3,3527,3527,42.68846104539877,-84.53800010903635,Pennsylvania / Samantha St,0
506,13319,CATAMI:10071,0,,3,5712,5712,42.66189512268831,-84.5521374247103,Edgewood / Celebration Dr.,0
507,14412,CATAMI:10074,0,,3,5690,5690,42.66313618475129,-84.56561823653934,Edgewood / Washington,0
508,19543,CATAMI:7688,0,,3,3674,3674,42.73377779710425,-84.58483671210882,Michigan / Hathaway St,0
509,12881,CATAMI:8863,0,,3,2581,2581,42.71657379908628,-84.49360066407307,Harrison / Crescent Rd,0
510,16635,CATAMI:10363,0,,3,4566,4566,42.66916163099909,-84.59151866220154,Miller / Wise Rd,0
511,11799,CATAMI:9183,0,,3,5911,5911,42.71975739307392,-84.46202552709391,Hagadorn / Hannah Blvd,0
512,16228,CATAMI:10398,0,,3,4565,4565,42.66929652904942,-84.58625763823889,Miller / Picardy St,0
513,18511,CATAMI:7698,0,,3,5753,5753,42.74089142095801,-84.5596197699016,Saginaw / Pine,0
514,16437,CATAMI:10411,0,,3,3451,3451,42.68301116416568,-84.58203083266208,Jolly / Pleasant Grove Rd,0
515,15057,CATAMI:10298,0,,3,54,54,42.71221209545914,-84.5380091022397,Penn / Mt Hope,0
516,15750,CATAMI:9676,0,,3,2046,2046,42.73003662450861,-84.52633592428501,Kalamazoo / Shepard,0
517,16226,CATAMI:9829,0,,3,1740,1740,42.73366088546064,-84.52955549108607,Michigan / Custer Ave,0
518,16337,CATAMI:9043,0,,3,3738,3738,42.74336455188061,-84.51545414822554,Grand River / Downer Ave,0
519,17824,CATAMI:9887,0,,3,1787,1787,42.68926144049735,-84.5968336453843,Sumpter / Stillwell Ave,0
520,11960,CATAMI:10250,0,,3,1937,1937,42.63308989234247,-84.54305428932182,Eifert / Wilcox,0
521,18252,CATAMI:8674,0,,3,5997,5997,42.74733055456014,-84.54594110759875,Grand River after Cedar,0
522,23705,CATAMI:9973,0,,3,6128,6128,42.74113423744858,-84.64019887196176,Saginaw / Lincoln Ct,0
523,18374,CATAMI:9882,0,,3,4429,4429,42.68659045910094,-84.60565597787547,Burneway / Seaway Dr,0
524,17480,CATAMI:10726,0,,3,1669,1669,42.76201645563873,-84.50189239756631,Meijer Lake Lansing Boarding Center (East Side),0
525,15189,CATAMI:10393,0,,3,4737,4737,42.6654294516068,-84.5745844602842,Haag Road / Georgetown,0
526,11927,CATAMI:10251,0,,3,5804,5804,42.62801772565029,-84.54300033010169,Eifert / Haddon Hall,0
527,18210,CATAMI:10550,0,,3,15,15,42.68649153386404,-84.60354257508708,Burneway / Waverly,0
528,18722,CATAMI:8978,0,,3,3586,3586,42.73742903766636,-84.56754278205729,Shiawassee / MLK Blvd,0
529,17881,CATAMI:8091,0,,3,3553,3553,42.75008247478674,-84.53452873254135,Vermont / Oak St,0
530,20677,CATAMI:9994,0,,3,1863,1863,42.74823886809898,-84.58646448191605,Willow / Eastfield Rd,0
531,16033,CATAMI:9615,0,,3,6102,6102,42.71209518381552,-84.55339647317999,Mt. Hope / Washington,0
532,11195,CATAMI:8848,0,,3,4472,4472,42.68663542511772,-84.50541773328145,Trappers Cove / Beau Jardin,0
533,10397,CATAMI:9295,0,,3,5595,5595,42.68809232406122,-84.30358327038677,Grand River / Corwin,0
534,18039,CATAMI:8675,0,,3,6005,6005,42.74734854096684,-84.54198409812258,Grand River / Case,0
535,17679,CATAMI:8088,0,,3,3550,3550,42.74577473037973,-84.53771232652899,Pennsylvania / Porter St,0
536,10788,CATAMI:10146,0,,3,5548,5548,42.68217479625368,-84.50375399066078,Pinetree / Jolly,0
537,10419,CATAMI:7915,0,,3,4099,4099,42.71177142849474,-84.44516327080342,Mt Hope / Comanche Dr,0
538,11937,CATAMI:10800,0,,3,1938,1938,42.62357508319295,-84.54317120096543,Windmill / Rotterdam,0
539,14906,CATAMI:10218,0,,3,4369,4369,42.70990983540027,-84.53819795951016,Pennsylvania / Kenwood Ave,0
540,20281,CATAMI:7996,0,,3,3756,3756,42.75902171892154,-84.56534844043868,Grand River / MLK Access,0
541,15904,CATAMI:9907,0,,3,1806,1806,42.70659134336231,-84.5568858360817,Washington / Kensington R,0
542,14856,CATAMI:9772,0,,3,6105,6105,42.73332813693651,-84.50346620815343,Michigan / Morgan,0
543,10798,CATAMI:7940,0,,3,1706,1706,42.71994625034437,-84.42464078074747,Okemos Meijer,0
544,13527,CATAMI:10690,0,,3,1655,1655,42.73247378261779,-84.47461601179081,Gr. River Ave / Farm Lane,0
545,17927,CATAMI:8140,0,,3,5985,5985,42.77238561910696,-84.4859114752046,Coleman / The Club,0
546,16631,CATAMI:9624,0,,3,6089,6089,42.71196927896855,-84.56259652021208,Mt. Hope / Rundle,0
547,16443,CATAMI:9011,0,,3,2353,2353,42.74672800993535,-84.51126331546214,Chester / Woodruff Ave,0
548,12687,CATAMI:10185,0,,3,5551,5551,42.69930684864481,-84.51490556282089,Stoneleigh / Wabash,0
549,12929,CATAMI:10284,0,,3,4389,4389,42.67773215379634,-84.53808104786654,Pennsylvania / Dennis St,0
550,11007,CATAMI:8852,0,,3,5713,5713,42.69000787637582,-84.49867283076524,Collins / Dunckel,0
551,16273,CATAMI:10303,0,,3,3542,3542,42.72844482751479,-84.53788319739273,Pennsylvania / Bement,0
552,21581,CATAMI:10040,0,,3,1855,1855,42.74105329861839,-84.60865071459267,Saginaw / Renker Rd,0
553,17404,CATAMI:10308,0,,3,4479,4479,42.73726716000597,-84.54541950180416,Shiawassee / Larch St,0
554,16383,CATAMI:9859,0,,3,4500,4500,42.69759814000738,-84.57148180512675,Holmes / Sommerset,0
555,16944,CATAMI:9862,0,,3,1761,1761,42.69762511961744,-84.57930589204554,Holmes Rd / Simken Dr,0
556,21291,CATAMI:9960,0,,3,1838,1838,42.74117021026201,-84.60408216728837,Saginaw / Waverly Rd,0
557,18125,CATAMI:8093,0,,3,5731,5731,42.75179118342418,-84.53641730524588,North / Massachusetts,0
558,13777,CATAMI:7871,0,,3,1657,1657,42.73372383788413,-84.4778715514053,Gr. River Ave / Division,0
559,6314,CATAMI:9267,0,,3,3315,3315,42.58864548136241,-84.45664759148767,Cedar / Curtis St,0
560,6203,CATAMI:9192,0,,3,5466,5466,42.58054260513962,-84.44320275247205,Jefferson / Maple,0
561,10701,CATAMI:7914,0,,3,5824,5824,42.71174444888468,-84.45373379360066,Mt Hope / Fairlane,0
562,9240,CATAMI:7934,0,,3,2675,2675,42.70748167049445,-84.41027863498965,Dobie / Birchwood Dr,0
563,17019,CATAMI:9918,0,,3,4431,4431,42.7264663227767,-84.55294681301224,St Joseph / Washington,0
564,20679,CATAMI:7683,0,,3,3669,3669,42.73382276312103,-84.60219359458382,Michigan / Waverly Rd,0
565,17645,CATAMI:9070,0,,3,2235,2235,42.74528010419521,-84.53786521098603,Pennsylvania / Porter St,0
566,21965,CATAMI:9963,0,,3,3206,3206,42.74109826463517,-84.61443334434989,Saginaw / Robbins Rd,0
567,18438,CATAMI:8649,0,,3,2230,2230,42.75400351144949,-84.53878251772822,High / Lake Lansing,0
568,6522,CATAMI:9263,0,,3,5470,5470,42.57690035778088,-84.44304986801501,Jefferson / Elm,0
569,14337,CATAMI:8902,0,,3,4759,4759,42.72811207899065,-84.50238702375083,Kalamazoo / Marigold,0
570,17186,CATAMI:10401,0,,3,5586,5586,42.66932350865948,-84.5984883948016,Miller / Coachlight,0
571,15708,CATAMI:10417,0,,3,3456,3456,42.69029565888317,-84.56748882283716,MLK / Pierce Rd,0
572,20509,CATAMI:9995,0,,3,1864,1864,42.74823886809898,-84.5837035684861,Willow / Sunset Ave,0
573,14876,CATAMI:10052,0,,3,3265,3265,42.6996485903723,-84.54810846960729,Cedar St / Crest St,0
574,11025,CATAMI:10245,0,,3,4770,4770,42.64030244143312,-84.53040984540479,Holt Road / Dean,0
575,13890,CATAMI:10376,0,,3,4581,4581,42.669260556236,-84.55600450215292,Miller / Somerset Rd,0
576,11047,CATAMI:9224,0,,3,2736,2736,42.68784051436728,-84.2927644467508,Grand River / McCormick,0
577,8080,CATAMI:7932,0,,3,5382,5382,42.69696861577253,-84.410287628193,Dobie / Kinawa,0
578,18174,CATAMI:8642,0,,3,4871,4871,42.76281685073732,-84.51656930544155,Etc Drive By Bravo,0
579,10609,CATAMI:10259,0,,3,3306,3306,42.63291002827538,-84.52650679514875,Wilcox / Meadow Dr,0
580,18197,CATAMI:9873,0,,3,1774,1774,42.68930640651413,-84.60177091402615,Sumpter / Waverly,0
581,15867,CATAMI:10493,0,,3,1803,1803,42.70104253689232,-84.56133747174239,Washington / Loa St,0
582,16675,CATAMI:10410,0,,3,3450,3450,42.68302015736904,-84.58519644024301,Jolly / Sidney St,0
583,17880,CATAMI:8322,0,,3,3609,3609,42.69800283415834,-84.59196832236928,Deerfield / Holmes Rd,0
584,16581,CATAMI:10338,0,,3,3483,3483,42.70562907060333,-84.56770465971768,MLK / Rundle Ave,0
585,17386,CATAMI:8049,0,,3,3885,3885,42.76071244115226,-84.5026927926649,Lake Lansing Rd / Coolidge,0
586,18728,CATAMI:10702,0,,3,1777,1777,42.69396488585198,-84.60609664483987,Sheffield / Bayview Dr,0
587,13905,CATAMI:8719,0,,3,3933,3933,42.74047773360368,-84.46229532319455,Hagadorn / Burcham Dr,0
588,16656,CATAMI:9831,0,,3,1742,1742,42.73365189225728,-84.53732561878473,Michigan / Pennsylvani,0
589,24759,CATAMI:9974,0,,3,6130,6130,42.74114323065194,-84.65542436524166,Saginaw / Starkweather Dr,0
590,13704,CATAMI:10377,0,,3,4582,4582,42.66924256982929,-84.55358533045045,Miller / Annapolis Dr,0
591,8896,CATAMI:7933,0,,3,3985,3985,42.70437002213364,-84.41026964178629,Dobie / Hatch Rd,0
592,22957,CATAMI:8510,0,,3,4552,4552,42.7739954025075,-84.5914467165747,W Circle Dr / Hangar Dr,0
593,11237,CATAMI:10274,0,,3,4453,4453,42.65201159220124,-84.52961844350955,Cedar / Delhi Commerce Dr,0
594,19768,CATAMI:9945,0,,3,1824,1824,42.74836477294595,-84.5711940226194,Willow / Glenrose Ave,0
595,11875,CATAMI:10277,0,,3,4454,4454,42.65759637148465,-84.53548201209696,Cedar / Just A Mere,0
596,14381,CATAMI:7969,0,,3,3965,3965,42.75387760660252,-84.41097111164798,Lake Lansing / Cypress St,0
597,15398,CATAMI:10367,0,,3,4578,4578,42.66781265049585,-84.57623920970151,Balfour Dr. / Miller,0
598,12270,CATAMI:10573,0,,3,42,42,42.62395279773386,-84.54725411528857,Windmill Mobile Park,0
599,11477,CATAMI:10256,0,,3,3300,3300,42.63295499429215,-84.53713676151428,Wilcox / Laurelwood Dr,0
600,22817,CATAMI:9967,0,,3,1845,1845,42.7454419818556,-84.62300386714713,Mall Dr W after Elmwood Rd,0
601,14330,CATAMI:10092,0,,3,4459,4459,42.69072733264421,-84.54790162593012,Cedar / Jessop Ave,0
602,18210,CATAMI:8650,0,,3,4890,4890,42.75133253005308,-84.53880050413494,High St / North,0
603,13943,CATAMI:10646,0,,3,175,175,42.73357994663045,-84.48237714628611,MSU Union,0
604,16641,CATAMI:10399,0,,3,4743,4743,42.66925156303264,-84.59156362821831,Miller / Wise,0
605,18068,CATAMI:8778,0,,3,5919,5919,42.71204122459539,-84.5837215548928,Mt Hope / Pleasant Grove,0
606,24565,CATAMI:9979,0,,3,6135,6135,42.72901139932614,-84.66212430174107,Canal / Williamsburg Rd,0
607,22975,CATAMI:8009,0,,3,3768,3768,42.76582058065787,-84.60268822076836,Waverly / Wilson Ave,0
608,14172,CATAMI:8072,0,,3,2535,2535,42.7366016629577,-84.48078534929229,Mac / Linden,0
609,16182,CATAMI:10412,0,,3,3452,3452,42.68302015736904,-84.57864039499727,Jolly / Hughes Rd,0
610,13753,CATAMI:10291,0,,3,2181,2181,42.69264288495881,-84.53796413622293,Pennsylvania / Maplehill,0
611,15865,CATAMI:10799,0,,3,1738,1738,42.73367887186735,-84.52282857497659,Michigan / Clemens Ave,0
612,16388,CATAMI:10422,0,,3,3461,3461,42.70287715037672,-84.56729097236335,MLK / Dunlap St,0
613,15734,CATAMI:10198,0,,3,2490,2490,42.7251892879003,-84.532999887971,Holmes / Malcolm X,0
614,14408,CATAMI:10534,0,,3,6180,6180,42.68289425252207,-84.5547904197,Jolly / Ora,0
615,10263,CATAMI:10149,0,,3,5795,5795,42.67303770164506,-84.50435653528555,English Oak / Pinetree,0
616,12614,CATAMI:10232,0,,3,4383,4383,42.67085235322982,-84.538269905137,Pennsylvania Pastandrew Jackson,0
617,16983,CATAMI:9014,0,,3,3704,3704,42.7487155078768,-84.51889854511047,Hayford / Hopkins Ave,0
618,11064,CATAMI:9298,0,,3,5596,5596,42.68774158913038,-84.29238673220989,Grand River / McCormick,0
619,14844,CATAMI:8933,0,,3,1730,1730,42.73373283108748,-84.5024319897676,Michigan / Friendship Cir,0
620,17651,CATAMI:9888,0,,3,1788,1788,42.68755273185992,-84.59552963089783,Ronald / Atlanta Pl,0
621,15948,CATAMI:8956,0,,3,3865,3865,42.7534639192482,-84.48379807241619,Abbot / Rampart Way,0
622,17992,CATAMI:9872,0,,3,1773,1773,42.68930640651413,-84.59905496661295,Sumpter / Anson,0
623,18835,CATAMI:9880,0,,3,1781,1781,42.6891535220571,-84.61031445721333,Seaway / Glenburne Blvd,0
624,18007,CATAMI:10433,0,,3,3037,3037,42.73263566027818,-84.56166122706317,Allegan St / S Sycamore St,0
625,16996,CATAMI:10207,0,,3,4360,4360,42.73709628914222,-84.53842278959402,Shiawassee / Pennsylvania,0
626,18889,CATAMI:10703,0,,3,1778,1778,42.69347925287082,-84.60853380294905,Sheffield / Blue River,0
627,18531,CATAMI:8776,0,,3,3618,3618,42.7120592110021,-84.59037652537545,W Mt Hope / Bedford Dr,0
628,11918,CATAMI:10254,0,,3,1940,1940,42.62793678682009,-84.54290140486478,Eifert / Valley Brook Rd,0
629,15429,CATAMI:10683,0,,3,1684,1684,42.7334900145969,-84.51475267836386,Michigan / Mifflin Ave,0
630,19031,CATAMI:9879,0,,3,1780,1780,42.69157269375957,-84.6115375328696,Seaway / Sheffield Blvd,0
631,10994,CATAMI:9798,0,,3,3091,3091,42.72170891820194,-84.42485661762798,Gr. River / Mall Entrance,0
632,16544,CATAMI:10350,0,,3,3495,3495,42.68312807580929,-84.58340679277538,Jolly / Richmond St,0
633,12012,CATAMI:10249,0,,3,1936,1936,42.63763146003671,-84.54309026213524,Eifert / Deer Run Ln,0
634,10420,CATAMI:9225,0,,3,2738,2738,42.68805635124779,-84.30314260342237,Grand River / Corwin Rd,0
635,12711,CATAMI:10067,0,,3,5678,5678,42.66567226809738,-84.54244275149368,Edgewood / Cedar,0
636,17632,CATAMI:9033,0,,3,3728,3728,42.7557571861037,-84.51907840917758,Tulane / Hayford Ave,0
637,13998,CATAMI:10058,0,,3,1913,1913,42.68429719224544,-84.54816242882742,Cedar / E Syringa Dd,0
638,18070,CATAMI:8788,0,,3,3608,3608,42.70162709511038,-84.59201328838606,Deerfield / Dunlap St,0
639,6315,CATAMI:9189,0,,3,5468,5468,42.58819582119467,-84.45615296530315,Cedar / Curtis,0
640,25600,CATAMI:10020,0,,3,6144,6144,42.73417349805187,-84.67272728849653,Marketplace / LAFCU,0
641,6589,CATAMI:9194,0,,3,5463,5463,42.57625284713932,-84.44322073887875,Jefferson / Cherry,0
642,12403,CATAMI:10179,0,,3,3385,3385,42.68689622801501,-84.52335018077117,Aurelius / Irene St,0
643,16798,CATAMI:9891,0,,3,3159,3159,42.68663542511772,-84.58469282085514,Reo Rd / Sidney St,0
644,9698,CATAMI:7935,0,,3,4615,4615,42.71162753724106,-84.41029662139636,Dobie / Forest Hills,0
645,18287,CATAMI:8686,0,,3,4694,4694,42.7645165661714,-84.51549012103897,Drive South of Ncg,0
646,9208,CATAMI:9158,0,,3,3984,3984,42.70718489478373,-84.41043151944667,Dobie / Birchwood Dr,0
647,13507,CATAMI:9609,0,,3,3393,3393,42.70465780464099,-84.5218483158109,Forest Rd / Aurelius Rd,0
648,8991,CATAMI:9174,0,,3,2696,2696,42.70158212909361,-84.43229399680251,Okemos / Sower Blvd,0
649,15490,CATAMI:10415,0,,3,6081,6081,42.68597892127281,-84.56747982963381,MLK / Vincent Ct,0
650,13557,CATAMI:9632,0,,3,2002,2002,42.70456787260745,-84.52275662934974,Forest / Aurelius Rd,0
651,17595,CATAMI:9870,0,,3,4418,4418,42.6872379697425,-84.59497205228982,Atlanta / Ronald St,0
652,10822,CATAMI:9600,0,,3,6086,6086,42.68734588818275,-84.49878974240886,Collins / Dunckel,0
653,17299,CATAMI:9049,0,,3,3742,3742,42.7436253547779,-84.53398914034005,Oakland / Cleveland St,0
654,10315,CATAMI:10263,0,,3,3321,3321,42.62961851584747,-84.52320628951749,Aurelius / Doncaster,0
655,15160,CATAMI:10370,0,,3,4705,4705,42.66512368269273,-84.57434164379362,Haag / Georgetown,0
656,18023,CATAMI:10356,0,,3,3501,3501,42.68262445642142,-84.60314687413945,Waverly / Jolly Rd,0
657,18512,CATAMI:10005,0,,3,4342,4342,42.74062162485735,-84.56001547084921,Pine / Saginaw St,0
658,16880,CATAMI:10504,0,,3,4215,4215,42.76275389831384,-84.48378008600949,25 East Apartments,0
659,7562,CATAMI:10652,0,,3,133,133,42.56701682729381,-84.44572084941142,Mason Meijer,0
660,15385,CATAMI:8893,0,,3,5885,5885,42.73663763577112,-84.5082595855416,Clippert / Vine,0
661,15050,CATAMI:10191,0,,3,4795,4795,42.72312984433202,-84.52388977297247,Regent / Malcolm X,0
662,10490,CATAMI:10150,0,,3,5796,5796,42.67296575601823,-84.50763905451011,English Oak / Spanish Oak,0
663,18550,CATAMI:8331,0,,3,4763,4763,42.72440687920842,-84.57930589204554,William / Buffalo,0
664,17634,CATAMI:8783,0,,3,3604,3604,42.70529632207919,-84.58311001706467,Victor / Pleasant Grove Rd,0
665,18549,CATAMI:9875,0,,3,1776,1776,42.69417172952915,-84.60356056149378,Sheffield Blvd / Waverly Rd,0
666,6188,CATAMI:9264,0,,3,5471,5471,42.58063253717317,-84.44305886121836,Jefferson / Maple,0
667,15919,CATAMI:10418,0,,3,3457,3457,42.6943605867996,-84.56744385682039,MLK / Le Grand Dr,0
668,16656,CATAMI:10208,0,,3,4361,4361,42.73318424568283,-84.537991115833,Pennsylvania / Michigan,0
669,18424,CATAMI:9091,0,,3,5949,5949,42.77312306178207,-84.49801632692034,Coleman / Beaumont,0
670,17478,CATAMI:10360,0,,3,5584,5584,42.66921559021922,-84.60225654700731,Miller / Waverly,0
671,15844,CATAMI:10343,0,,3,5600,5600,42.69275080339907,-84.56760573448078,MLK / Hillcrest St,0
672,10457,CATAMI:9178,0,,3,2864,2864,42.71187934693501,-84.44601762512214,Mt Hope / Comanche Dr,0
673,13736,CATAMI:7952,0,,3,2600,2600,42.7388769434065,-84.46214243873752,Hagadorn / Snyder Rd,0
674,17762,CATAMI:9871,0,,3,1772,1772,42.68862292305916,-84.59638398521655,Stillwell / Jerree St,0
675,11827,CATAMI:10255,0,,3,3299,3299,42.63299996030892,-84.54143551271792,Wilcox / Eifert Rd,0
676,6187,CATAMI:9191,0,,3,4032,4032,42.5811451497644,-84.4439491883505,Sycamore / Park St,0
677,13735,CATAMI:10060,0,,3,1916,1916,42.679117107113,-84.5481444424207,Cedar / Armstrong Rd,0
678,18378,CATAMI:9874,0,,3,4422,4422,42.69135685687905,-84.60298499647907,Waverly / Lochmoor Dr,0
679,17713,CATAMI:10358,0,,3,4572,4572,42.67431473652147,-84.60312888773274,Waverly / Old Farm Ln,0
680,12584,CATAMI:10135,0,,3,3368,3368,42.69777800407447,-84.5150044880578,Stoneleigh / Wabash Rd,0
681,19510,CATAMI:8993,0,,3,4710,4710,42.71419959340057,-84.6025803023281,Old Lansing / Waverly,0
682,11566,CATAMI:10159,0,,3,3384,3384,42.68297519135226,-84.51459979390683,Jolly / Dunckel Rd,0
683,13592,CATAMI:10086,0,,3,3337,3337,42.67691377229104,-84.54766780264289,Cedar / Northrup St,0
684,6513,CATAMI:9266,0,,3,3313,3313,42.58293479723203,-84.4527715208417,Cedar / Columbia St,0
685,18925,CATAMI:8774,0,,3,3617,3617,42.71206820420546,-84.59597929106558,Mt Hope after Medbury Ave,0
686,12433,CATAMI:9669,0,,3,5601,5601,42.71122284309009,-84.4939513990039,Harrison Road / Mt Hope,0
687,18288,CATAMI:8777,0,,3,3619,3619,42.7120592110021,-84.58687816927039,Mt Hope / Edwin Pl,0
688,17770,CATAMI:8147,0,,3,5946,5946,42.76440864773114,-84.50333131010309,Coolidge / Abbey,0
689,10418,CATAMI:10148,0,,3,5724,5724,42.67743537808563,-84.50275574508838,Patient Care / Pine Tree,0
690,18354,CATAMI:8324,0,,3,4712,4712,42.69769706524428,-84.598650272462,Holmes / Berwick,0
691,15750,CATAMI:9129,0,,3,3844,3844,42.75155736013695,-84.48357324233231,Abbot / Woodland Pass,0
692,17665,CATAMI:10354,0,,3,3499,3499,42.68318203502943,-84.59816463948083,Jolly / Conners Ave,0
693,7427,CATAMI:7929,0,,3,5813,5813,42.69104209476163,-84.41031460780307,Dobie / Sashabaw,0
694,18584,CATAMI:8333,0,,3,2292,2292,42.72716779263838,-84.57697665237662,Everett / W St Joseph St,0
695,14490,CATAMI:10686,0,,3,1690,1690,42.73324719810631,-84.49577701928496,Michigan / Brody Rd W,0
696,13274,CATAMI:9302,0,,3,5639,5639,42.68370364082401,-84.25607217706268,Grand River / Sky Way,0
697,14918,CATAMI:10372,0,,3,4744,4744,42.66922458342258,-84.56940437515176,Miller / Winterset,0
698,10566,CATAMI:10147,0,,3,5815,5815,42.67974663134784,-84.50280071110515,Patient Care / Pinetree,0
699,22416,CATAMI:10036,0,,3,1851,1851,42.74105329861839,-84.62125019249292,Saginaw / Elmwood Dr,0
700,18068,CATAMI:8785,0,,3,5719,5719,42.70532330168926,-84.58920740893932,Victor / Bedford,0
701,16194,CATAMI:8938,0,,3,2461,2461,42.74786115355808,-84.50342124213665,Coolidge / Lakeside Dr,0
702,13196,CATAMI:9503,0,,3,4753,4753,42.71721231652447,-84.49871779678202,Middlevale / N Crescent,0
703,18222,CATAMI:9064,0,,3,4511,4511,42.75170125139063,-84.53843178279739,North / High St,0
704,10503,CATAMI:10243,0,,3,41,41,42.64026646861971,-84.52396171859931,Holt / Aurelius,0
705,23040,CATAMI:10033,0,,3,1847,1847,42.74093638697478,-84.63063010359211,Saginaw / Mall Dr,0
706,18847,CATAMI:10611,0,,3,80,80,42.75169225818728,-84.55023086559905,North / Turner,0
707,10696,CATAMI:9179,0,,3,4621,4621,42.7118613605283,-84.45329312663627,Mt Hope / Hawthorne Lane,0
708,12864,CATAMI:10183,0,,3,4854,4854,42.69641103716452,-84.52092201586534,Provincial House / Aurelius,0
709,15843,CATAMI:8921,0,,3,1995,1995,42.72996467888176,-84.52814355815934,Kalamazoo / Lathrop St,0
710,13018,CATAMI:9356,0,,3,2918,2918,42.72517130149359,-84.47949932121253,S Shaw / Farm,0
711,14371,CATAMI:8616,0,,3,1726,1726,42.73435336211897,-84.49076780501626,Michigan Ave / Louis St,0
712,10961,CATAMI:10258,0,,3,3305,3305,42.63294600108879,-84.53081453955576,Wilcox / Foxwood Dr,0
713,12822,CATAMI:10283,0,,3,3522,3522,42.67558277819451,-84.53807205466319,Pennsylvania / Keystone Av,0
714,10434,CATAMI:9229,0,,3,5499,5499,42.71835445335055,-84.40949622629778,Central Park / Grand River,0
715,16119,CATAMI:10420,0,,3,3459,3459,42.69823665744558,-84.56725499954993,MLK / Holmes Rd,0
716,15567,CATAMI:10345,0,,3,3490,3490,42.68719300372572,-84.56771365292103,MLK / Reo Rd,0
717,11546,CATAMI:10247,0,,3,4772,4772,42.64035640065325,-84.53683998580357,Holt Rd. / Wyndam Hills,0
718,15137,CATAMI:10371,0,,3,4563,4563,42.66837922230721,-84.57264192835953,Haag / Miller,0
719,14090,CATAMI:10090,0,,3,1976,1976,42.68633864940701,-84.54793759874354,Cedar / Cedar Ct,0
720,17373,CATAMI:9889,0,,3,1789,1789,42.68668938433785,-84.59233704370683,Reo / Wainwright Ave,0
721,17605,CATAMI:10403,0,,3,5588,5588,42.67147288426131,-84.60296701007235,Waverly / Bridgeport,0
722,17819,CATAMI:8779,0,,3,5920,5920,42.71203223139204,-84.58010628714412,Mt Hope / Pleasant Grove,0
723,10873,CATAMI:9297,0,,3,4007,4007,42.68771460952031,-84.29538146892708,Grand River / Wint St,0
724,15777,CATAMI:10785,0,,3,1681,1681,42.73350800100361,-84.52143462845657,Michigan / Clemens Ave,0
725,15238,CATAMI:10369,0,,3,4704,4704,42.66428731478072,-84.57569062429685,Georgetown / Balfour,0
726,16768,CATAMI:10337,0,,3,3481,3481,42.70849790247355,-84.56789351698814,MLK / Gordon Ave,0
727,11873,CATAMI:10566,0,,3,6106,6106,42.6774803441024,-84.52362897007517,Aurelius / Storage Sense,0
728,15207,CATAMI:9768,0,,3,4636,4636,42.73464114462633,-84.5082595855416,Clippert St / E Michigan,0
729,19312,CATAMI:8417,0,,3,3653,3653,42.73733011242945,-84.5772374552739,Verlinden / Shiawassee St,0
730,25843,CATAMI:9750,0,,3,6143,6143,42.73856218128908,-84.67282621373344,Marketplace / Saginaw Hwy,0
731,15481,CATAMI:9613,0,,3,6085,6085,42.7120592110021,-84.54488890280622,Mt Hope / Ray,0
732,19216,CATAMI:8098,0,,3,2797,2797,42.76062250911872,-84.54273952720439,N East / Banghart,0
733,13795,CATAMI:10109,0,,3,5543,5543,42.68102366622424,-84.54767679584626,Fia Entrance Off Cedar,0
734,16047,CATAMI:9625,0,,3,6090,6090,42.71193330615513,-84.55378318092424,Mt. Hope / Washington,0
735,15871,CATAMI:10046,0,,3,3258,3258,42.71615111852859,-84.5464896930034,Cedar / Baker St,0
736,12218,CATAMI:10178,0,,3,4851,4851,42.68379357285756,-84.52339514678795,Aurelius / Jolly,0
737,17887,CATAMI:10355,0,,3,5638,5638,42.68320002143614,-84.60106944416447,Jolly / Waverly Road,0
738,16256,CATAMI:10421,0,,3,3460,3460,42.70062884953798,-84.56728197916,MLK / Southland Ave,0
739,15520,CATAMI:10796,0,,3,1735,1735,42.73369685827406,-84.5161825976973,Michigan / Kipling Blvd,0
740,11798,CATAMI:10237,0,,3,5646,5646,42.65675101036929,-84.53485248786212,Cedar / Just-A-Mere,0
741,14194,CATAMI:8122,0,,3,4697,4697,42.73098091086087,-84.49386146697036,Harrison / Kalamazoo,0
742,15590,CATAMI:10366,0,,3,4577,4577,42.6691796174058,-84.57809180959262,Miller / Woodgate Dr,0
743,17773,CATAMI:9069,0,,3,3580,3580,42.7468179419689,-84.53784722457931,Pennsylvania / Grand River,0
744,12713,CATAMI:10694,0,,3,1697,1697,42.72908334495298,-84.46140499606241,Gr. River Ave / S Hagadorn,0
745,11786,CATAMI:10565,0,,3,4469,4469,42.68284029330194,-84.51795425875821,Jolly Rd / Five Oaks Dr,0
746,22682,CATAMI:8508,0,,3,2421,2421,42.77240360551367,-84.58882969439841,Capitol City / Commerce Dr,0
747,13373,CATAMI:10227,0,,3,4378,4378,42.68587100283255,-84.53821594591686,Pennsylvania / Kendon Dr,0
748,14832,CATAMI:10075,0,,3,6118,6118,42.69335334802385,-84.55291983340217,Stabler / Rouse,0
749,15742,CATAMI:10413,0,,3,3453,3453,42.68302015736904,-84.5727498467998,Jolly / Tressa Dr,0
750,12715,CATAMI:10082,0,,3,4388,4388,42.6650697234726,-84.54281147283123,Edgewood / Amwood,0
751,17109,CATAMI:9896,0,,3,1796,1796,42.69683371772221,-84.5821657307124,Pleasant Grove / Holmes,0
752,18673,CATAMI:8341,0,,3,2240,2240,42.73731212602274,-84.56688627821238,Shiawassee / MLK,0
753,16426,CATAMI:8910,0,,3,5683,5683,42.72995568567841,-84.53848574201751,Kalamazoo / Pennsylvania,0
754,13749,CATAMI:7961,0,,3,4606,4606,42.74747444581381,-84.41971250530896,Boise Isle / Haslett Rd,0
755,18579,CATAMI:9939,0,,3,1817,1817,42.74387716447184,-84.55677791764144,Walnut / Oakland Ave,0
756,18529,CATAMI:8144,0,,3,6002,6002,42.77326695303575,-84.50048046463958,Coleman / Hamlet,0
757,13513,CATAMI:9518,0,,3,5687,5687,42.72660122082702,-84.48777306829906,Chestnut / Shaw,0
758,16608,CATAMI:9860,0,,3,5716,5716,42.69761612641408,-84.57463841950432,Holmes / Express Dr.,0
759,6384,CATAMI:9268,0,,3,4865,4865,42.59119955111521,-84.46041574369337,Cedar / Kern,0
760,10089,CATAMI:7916,0,,3,5381,5381,42.71181639451152,-84.43286956181723,Mt Hope / Seminole,0
761,15884,CATAMI:9855,0,,3,1756,1756,42.70024214179372,-84.5622727648913,Washington / Hodge Ave,0
762,13114,CATAMI:10286,0,,3,3524,3524,42.68129346232489,-84.53809903427326,Pennsylvania / Willema St,0
763,18016,CATAMI:10406,0,,3,3446,3446,42.68275036126839,-84.60299398968242,Waverly / Jolly,0
764,17925,CATAMI:10405,0,,3,3445,3445,42.68041212839611,-84.60298499647907,Waverly / Hartford Rd,0
765,17358,CATAMI:10334,0,,3,3476,3476,42.71779687474255,-84.567839557768,MLK / Pulaski St,0
766,17497,CATAMI:8780,0,,3,5996,5996,42.7112408294968,-84.57610431165118,Boston Blvd / Mount Hope,0
767,13248,CATAMI:10533,0,,3,4866,4866,42.68308310979252,-84.53862064006783,Jolly / Penn,0
768,13963,CATAMI:7962,0,,3,2647,2647,42.74933603890828,-84.42053988001763,Lacdumont / Bois Isle,0
769,17465,CATAMI:9622,0,,3,6088,6088,42.71200525178197,-84.57495318162175,Mt. Hope / Boston,0
770,17457,CATAMI:8640,0,,3,2365,2365,42.76081136638917,-84.50417667121846,Lake Lansing / Coolidge Rd,0
771,16227,CATAMI:10340,0,,3,3485,3485,42.69994536608301,-84.56741687721032,MLK / Southland Ave,0
772,13140,CATAMI:8117,0,,3,4523,4523,42.72607961503244,-84.48033568912454,Shaw / Red Cedar Rd,0
773,17953,CATAMI:8344,0,,3,5752,5752,42.73722219398919,-84.5549702837671,Shiawassee / Seymour,0
774,17667,CATAMI:8090,0,,3,3552,3552,42.74760934386413,-84.534519739338,Vermont / Grand River Av,0
775,14581,CATAMI:10054,0,,3,1909,1909,42.69466635571367,-84.54821638804755,Cedar / E Rouse St,0
776,18457,CATAMI:8143,0,,3,5944,5944,42.77323997342568,-84.49861887154512,Coleman / Beaumont Park,0
777,12287,CATAMI:10234,0,,3,3277,3277,42.6629743070909,-84.53829688474706,Pennsylvania / Pierpoint,0
778,15333,CATAMI:10543,0,,3,9,9,42.73709628914222,-84.50629906721022,Frandor Center,0
779,9833,CATAMI:9227,0,,3,2740,2740,42.71216712944236,-84.37757934759112,Grand River Ave / Spruce Rd,0
780,13899,CATAMI:9112,0,,3,2843,2843,42.73010857013544,-84.4891040623956,Kalamazoo / Dem Hall Dr,0
781,15914,CATAMI:9908,0,,3,1807,1807,42.70798528988232,-84.55570772644221,Washington / Rockford R,0
782,15445,CATAMI:10346,0,,3,3491,3491,42.68455799514273,-84.56778559854787,MLK / Briarfield Dr,0
783,14627,CATAMI:10373,0,,3,4580,4580,42.66923357662593,-84.56563622294604,Miller / Southbrook,0
784,20479,CATAMI:9468,0,,3,5929,5929,42.72667316645386,-84.60592577397613,St Joseph / Waverly,0
785,13819,CATAMI:8711,0,,3,2931,2931,42.7470967312729,-84.42836396693642,Haslett / N Okemos Rd,0
786,19951,CATAMI:7686,0,,3,3672,3672,42.73377779710425,-84.59115893406734,Michigan / Brynford Ave,0
787,13914,CATAMI:8699,0,,3,3949,3949,42.74981267868609,-84.40839905548847,Marsh / Lake Rd,0
788,14716,CATAMI:10390,0,,3,4561,4561,42.66932350865948,-84.5667423869587,Miller / Daft St,0
789,16812,CATAMI:9307,0,,3,5472,5472,42.66284840224393,-84.1983627911341,M-52 / Highview Rd,0
790,17857,CATAMI:8784,0,,3,3605,3605,42.70530531528255,-84.58624864503554,Victor / Viking St,0
791,13778,CATAMI:10116,0,,3,5647,5647,42.68309210299588,-84.54598607361552,Jolly / Cedar,0
792,17125,CATAMI:9863,0,,3,1763,1763,42.69694163616246,-84.58230962196609,Pleasant Grove / Holmes Rd,0
793,13944,CATAMI:8709,0,,3,4610,4610,42.7491921476546,-84.42026109071362,Lacdumont / Bois Isle,0
794,16605,CATAMI:10423,0,,3,3462,3462,42.70639349288849,-84.56739889080362,MLK / Rundle Ave,0
795,19259,CATAMI:10001,0,,3,1871,1871,42.7487155078768,-84.56194001636717,Willow / Christopher St,0
796,17584,CATAMI:10407,0,,3,3447,3447,42.68307411658917,-84.59715740070507,Jolly / Wexford Rd,0
797,12192,CATAMI:10499,0,,3,6083,6083,42.70325486491762,-84.50157763544888,McLaren Drive / Collins,0
798,12815,CATAMI:10068,0,,3,5679,5679,42.66500677104911,-84.54414246692777,Edgewood / Amwood,0
799,18181,CATAMI:9687,0,,3,6119,6119,42.76078438677911,-84.52094899547541,Lake Lansing / Wood,0
800,10237,CATAMI:10260,0,,3,1946,1946,42.62918684208643,-84.52227099636858,Doncaster / Aurelius Rd,0
801,12830,CATAMI:10064,0,,3,3275,3275,42.66916163099909,-84.54212798937625,Miller / S Cedar St,0
802,15191,CATAMI:10050,0,,3,1905,1905,42.70463082503093,-84.54809048320058,Cedar / E Greenlawn Ave,0
803,18235,CATAMI:9885,0,,3,1785,1785,42.68919848807387,-84.60234647904086,Sumpter / Waverly Rd,0
804,12815,CATAMI:9269,0,,3,5928,5928,42.66810942620656,-84.54251469712052,Meijer S Penn Bc West Side,0
805,13066,CATAMI:10379,0,,3,4584,4584,42.66925156303264,-84.54520366492365,Miller / Cedar St,0
806,15373,CATAMI:8892,0,,3,5823,5823,42.73597213872286,-84.50923085150393,Vine / Homer,0
807,13912,CATAMI:10387,0,,3,4558,4558,42.66936847467625,-84.5562473186435,Miller / Ellendale Dr,0
808,14294,CATAMI:10056,0,,3,1911,1911,42.68982801230872,-84.54809947640393,Cedar / E Cavanaugh Rd,0
809,18334,CATAMI:7986,0,,3,3746,3746,42.74417394018256,-84.55206547908345,Washington / Oakland Av,0
810,16026,CATAMI:10419,0,,3,3458,3458,42.69648298279137,-84.56732694517677,MLK / Holmes Rd,0
811,11922,CATAMI:9446,0,,3,4812,4812,42.71296752454095,-84.48046159397151,Commuter Lot 89-3,0
812,12226,CATAMI:9671,0,,3,4853,4853,42.70464881143764,-84.50020167533559,Forest / Collins,0
813,11128,CATAMI:10145,0,,3,5581,5581,42.68292123213213,-84.50813368069463,Jolly / Belle Chase,0
814,11447,CATAMI:7978,0,,3,5542,5542,42.727284704282,-84.41235606496464,Central Park / Times Square,0
815,16059,CATAMI:9828,0,,3,1739,1739,42.733669878664,-84.52646182913197,Michigan / Marshall Ave,0
816,20500,CATAMI:8106,0,,3,3566,3566,42.76769116695569,-84.55583363128918,Turner / Frederick St,0
817,13251,CATAMI:10063,0,,3,1918,1918,42.67244415022364,-84.54581520275178,Cedar / Kaynorth Rd,0
818,12738,CATAMI:10487,0,,3,2574,2574,42.71349812353889,-84.49604681538561,S Crescent / S Middlevale,0
819,14105,CATAMI:10388,0,,3,4559,4559,42.66935048826954,-84.55877440878623,Miller / Hilliard Rd,0
820,11225,CATAMI:10155,0,,3,5747,5747,42.68669837754121,-84.5058044410257,Trappers Cove / Dunckel 3,0
821,19141,CATAMI:8112,0,,3,2225,2225,42.75801448014579,-84.54568030470146,Thomas / Hall St,0
822,10549,CATAMI:10242,0,,3,3284,3284,42.6441785120791,-84.52353903804162,Aurelius Rd / Decamp Ave,0
823,15802,CATAMI:8060,0,,3,4835,4835,42.75865299758399,-84.4627269969556,Birch Row / Hagadorn,0
824,18138,CATAMI:10776,0,,3,1618,1618,42.73817547354481,-84.55685885647164,Walnut / Shiawassee St,0
825,12284,CATAMI:10279,0,,3,3334,3334,42.66317215756471,-84.53814400029003,Pennsylvania / Pierpoint,0
826,15486,CATAMI:8923,0,,3,5739,5739,42.72985676044151,-84.52175838377735,Kalamazoo / Clemens,0
827,16389,CATAMI:10339,0,,3,3484,3484,42.70268829310626,-84.5674618432271,MLK / Dunlap St,0
828,13716,CATAMI:10073,0,,3,5689,5689,42.66073499945552,-84.55771321079035,Edgewood / Richard,0
829,19528,CATAMI:8420,0,,3,3657,3657,42.73391269515458,-84.58445000436456,Michigan / Haze St,0
830,14628,CATAMI:10457,0,,3,1728,1728,42.73366088546064,-84.49793538809014,Michigan / Kensington,0
831,19372,CATAMI:8099,0,,3,4784,4784,42.76241215658635,-84.54272154079769,N East / Bates,0
832,18756,CATAMI:8326,0,,3,3613,3613,42.69935181466159,-84.60301197608914,Waverly / Hunters Ridge Dr,0
833,11120,CATAMI:8846,0,,3,4471,4471,42.68443209029576,-84.50655087690416,Beau Jardin / Belle Chase,0
834,20134,CATAMI:7685,0,,3,3671,3671,42.73375981069754,-84.59397380671743,Michigan / Bon Air Rd,0
835,15730,CATAMI:8957,0,,3,3866,3866,42.75126957762959,-84.48378907921284,Abbot / Abbott Woods Dr,0
836,13337,CATAMI:10079,0,,3,6064,6064,42.66142747611385,-84.55256909847134,Edgewood Blvd / Edgewood Circle,0
837,15917,CATAMI:9852,0,,3,1753,1753,42.70694207829315,-84.55675093803137,Washington / Wayburn Rd,0
838,20052,CATAMI:8102,0,,3,4498,4498,42.76973262411726,-84.54338703784595,Sheridan / N East,0
839,10760,CATAMI:9152,0,,3,4285,4285,42.72033295808863,-84.41939774319154,Gr River / Marsh,0
840,11260,CATAMI:10257,0,,3,3303,3303,42.63297298069886,-84.53448376652457,Wilcox / Heather Haven Dr,0
841,15883,CATAMI:10494,0,,3,1805,1805,42.70472075706448,-84.55831575541514,Washington / Greenlawn,0
842,18222,CATAMI:8786,0,,3,3606,3606,42.7053143084859,-84.59139275735455,Victor / Deerfield Ave,0
843,21393,CATAMI:10041,0,,3,4339,4339,42.74106229182175,-84.60576389631574,Saginaw / Dibble Blvd,0
844,13963,CATAMI:10089,0,,3,4458,4458,42.68399142333137,-84.54789263272677,Cedar / Jolly Rd,0
845,16183,CATAMI:9042,0,,3,3737,3737,42.74318468781351,-84.51259430955868,Grand River / Merrill St,0
846,25003,CATAMI:10026,0,,3,6150,6150,42.73746501047977,-84.66187249204714,Canal / Sunset,0
847,15935,CATAMI:9851,0,,3,1752,1752,42.70901950826813,-84.55499726337716,Washington / Strathmore R,0
848,15409,CATAMI:10395,0,,3,4701,4701,42.66827130386695,-84.57617625727802,Balfour / Miller,0
849,17817,CATAMI:8781,0,,3,3621,3621,42.70946916843588,-84.58229163555937,Pleasant Grove / Cooper,0
850,14175,CATAMI:10078,0,,3,5692,5692,42.66231780324599,-84.56292027553286,Edgewood / Washington,0
851,15953,CATAMI:9909,0,,3,1809,1809,42.71133076153036,-84.55294681301224,Washington / Mt Hope A,0
852,11712,CATAMI:10153,0,,3,5745,5745,42.6874178338096,-84.51253135713519,Trappers Cove / Dunckel 1,0
853,16056,CATAMI:9849,0,,3,5641,5641,42.71330027306508,-84.55250614604785,Washington / Bank St,0
854,17290,CATAMI:10408,0,,3,3448,3448,42.68305613018246,-84.59330830966915,Jolly / Wise Rd,0
855,11557,CATAMI:10567,0,,3,6107,6107,42.67134697941434,-84.52367393609195,Aurelius / Enterprise Dr,0
856,15389,CATAMI:10049,0,,3,6033,6033,42.70764354815483,-84.54809048320058,Cedar / Edison Ave,0
857,16621,CATAMI:9616,0,,3,6103,6103,42.71213115662894,-84.56229075129801,Mt. Hope / Beal,0
858,13063,CATAMI:10081,0,,3,4603,4603,42.66301027990432,-84.54833329969117,Edgewood / American,0
859,11709,CATAMI:7911,0,,3,5913,5913,42.71869619507804,-84.46243921444824,Hagadorn / Service,0
860,15893,CATAMI:10102,0,,3,3351,3351,42.71677164956009,-84.54612996486921,Cedar / Baker St,0
861,16201,CATAMI:10777,0,,3,1899,1899,42.72145710850801,-84.54562634548132,Cedar / E Elm St,0
862,14793,CATAMI:8927,0,,3,4647,4647,42.72991971286499,-84.50834052437179,Kalamazoo / Homer,0
863,24448,CATAMI:10023,0,,3,6147,6147,42.72706886740148,-84.66189947165721,Canal / St. Joseph Hwy,0
864,25831,CATAMI:9985,0,,3,6123,6123,42.73862513371256,-84.67261937005628,Marketplace / Delta Market,0
865,12892,CATAMI:9523,0,,3,5953,5953,42.72560297525462,-84.47547036610953,Ramp 1 Bay 2,0
866,14091,CATAMI:10375,0,,3,4746,4746,42.66924256982929,-84.55863951073592,Miller / Hilliard,0
867,16478,CATAMI:9101,0,,3,3890,3890,42.75507370264873,-84.49363663688648,Harrison / Crown Blvd,0
868,11035,CATAMI:8847,0,,3,3381,3381,42.68492671648028,-84.50473424982647,Trappers Cove / Beau Jardin,0
869,19758,CATAMI:8109,0,,3,3569,3569,42.75989405964697,-84.55436773914232,Turner / Randolph St,0
870,14084,CATAMI:10222,0,,3,4373,4373,42.6977330380577,-84.53816198669674,Pennsylvania / Dexter D,0
871,16262,CATAMI:10364,0,,3,4575,4575,42.66919760381251,-84.58672528481335,Miller / Pleasant Grove Rd,0
872,18110,CATAMI:9065,0,,3,4512,4512,42.75168326498392,-84.53628240719556,North / Massachussetts,0
873,14193,CATAMI:8901,0,,3,5806,5806,42.72815704500742,-84.49934732101687,Kalamazoo / U Vill Entrance,0
874,13105,CATAMI:10070,0,,3,5680,5680,42.66318115076806,-84.54880094626562,Edgewood / American Road,0
875,18283,CATAMI:9218,0,,3,4681,4681,42.66706621461739,-84.18127570475974,Grand River / Kalmink,0
876,11994,CATAMI:10162,0,,3,6049,6049,42.66929652904942,-84.53091346479266,Miller / Norburn,0
877,16453,CATAMI:10676,0,,3,1677,1677,42.73346303498683,-84.53398014713669,Michigan / Jones St,0
878,17385,CATAMI:10427,0,,3,3467,3467,42.71878612711159,-84.56723701314323,MLK / Moores River Dr,0
879,10169,CATAMI:10267,0,,3,4774,4774,42.64017653658615,-84.51984283146275,Holt Rd. / Elm,0
880,13666,CATAMI:10110,0,,3,161,161,42.68134742154502,-84.54568030470146,Family Ind. Agency,0
881,23043,CATAMI:8011,0,,3,3770,3770,42.7691660523059,-84.59954059959412,Grand River / Waverly,0
882,12789,CATAMI:9187,0,,3,5927,5927,42.66807345339314,-84.54220892820645,Meijer S Penn Bc East Side,0
883,16354,CATAMI:9900,0,,3,4430,4430,42.69749022156712,-84.57115804980597,Holmes / Somerset,0
884,14161,CATAMI:10057,0,,3,1912,1912,42.6874178338096,-84.54810846960729,Cedar / E Potter Ave,0
885,13405,CATAMI:10378,0,,3,4583,4583,42.66926954943935,-84.54964630738098,Miller / Gardenia Ave,0
886,16019,CATAMI:9910,0,,3,1810,1810,42.71291356532082,-84.55235326159081,Washington / Bank St,0
887,18195,CATAMI:10331,0,,3,4876,4876,42.73041433904951,-84.56731795197342,MLK / Kalamazoo,0
888,7838,CATAMI:7922,0,,3,2882,2882,42.69049350935698,-84.43250084047968,Okemos / Knob Hill Dr,0
889,13329,CATAMI:10385,0,,3,4396,4396,42.66937746787961,-84.5486030957918,Miller / Curry Lane,0
890,18149,CATAMI:10724,0,,3,1609,1609,42.74052269962045,-84.55391807897458,Capitol / Saginaw St,0
891,13044,CATAMI:10084,0,,3,3335,3335,42.67015088336813,-84.5444122630284,Cedar / Miller Rd,0
892,13240,CATAMI:10085,0,,3,3336,3336,42.67230925217331,-84.54576124353166,Cedar / Kaynorth Rd,0
893,15778,CATAMI:10101,0,,3,3350,3350,42.71449636911129,-84.54685841434096,Cedar / Isbell St,0
894,13561,CATAMI:10061,0,,3,1917,1917,42.67623028883607,-84.54766780264289,Cedar / E Northrup St,0
895,16750,CATAMI:9866,0,,3,1766,1766,42.689252447294,-84.58240854720299,Pleasant Grove / Risdale St,0
896,15826,CATAMI:8891,0,,3,4804,4804,42.74001008702922,-84.51112841741183,Howard / Saginaw,0
897,18863,CATAMI:8338,0,,3,3642,3642,42.73505483198065,-84.57265991476625,Jenison / Ottawa St,0
898,17702,CATAMI:8782,0,,3,3622,3622,42.70748167049445,-84.58229163555937,Pleasant Grove / Colonial,0
899,12180,CATAMI:9667,0,,3,6084,6084,42.70325486491762,-84.50137079177172,McLaren Drive / Forest,0
900,13830,CATAMI:10088,0,,3,36,36,42.68136540795173,-84.54792860554019,Cedar / Jolly,0
901,18837,CATAMI:8983,0,,3,3591,3591,42.73384074952774,-84.57365816033864,Michigan / Jenison Ave,0
902,11256,CATAMI:10246,0,,3,4771,4771,42.64036539385661,-84.53325169766495,Holt Rd. / Hamilton,0
903,14232,CATAMI:10091,0,,3,3340,3340,42.68893768517658,-84.54792860554019,Cedar / Samantha Ave,0
904,16489,CATAMI:8055,0,,3,2503,2503,42.75915661697186,-84.4829796909109,Lake Lansing / Abbot Rd,0
905,12843,CATAMI:9482,0,,3,4751,4751,42.71593528164808,-84.49396039220726,Harrison / N Crescent,0
906,22619,CATAMI:10497,0,,3,1850,1850,42.74024391031645,-84.62503633110535,Meijer W Saginaw By Gas Station,0
907,11059,CATAMI:9793,0,,3,1705,1705,42.72196072789588,-84.42705095924659,Gr. River Ave / Okemos Rd,0
908,22878,CATAMI:9968,0,,3,22,22,42.74350844313429,-84.62581873979723,Lansing Mall,0
909,23247,CATAMI:10484,0,,3,1846,1846,42.74546896146566,-84.62944300074926,Mall Dr / Vil. Green Access,0
910,21151,CATAMI:9472,0,,3,5991,5991,42.71647487384937,-84.62391218068598,Cornerstone / Snow,0
911,21401,CATAMI:9471,0,,3,5990,5990,42.72230246962337,-84.62292292831694,Snow Rd / Aspen,0
912,21454,CATAMI:9470,0,,3,5930,5930,42.72670014606393,-84.62006308965007,St. Joe / Snow,0
913,20375,CATAMI:7684,0,,3,3670,3670,42.73378679030761,-84.59762504727952,Michigan / Stoner Rd,0
914,12892,CATAMI:9453,0,,3,5957,5957,42.72560297525462,-84.47547036610953,Ramp 1 Bay 6,0
915,21748,CATAMI:8003,0,,3,2409,2409,42.76144089062402,-84.58765158475892,Delta River / Leon Ave,0
916,17466,CATAMI:10402,0,,3,5587,5587,42.66932350865948,-84.6020586965335,Miller / Waverly,0
917,22183,CATAMI:10037,0,,3,1852,1852,42.74102631900833,-84.61777881599792,Saginaw / Theo Ave,0
918,20380,CATAMI:10479,0,,3,3240,3240,42.75881487524438,-84.56740788400697,Peckham Riverside,0
919,16753,CATAMI:9915,0,,3,1815,1815,42.72339964043267,-84.55227232276061,Washington / Hazel St,0
920,16915,CATAMI:9617,0,,3,6110,6110,42.71213115662894,-84.56668842773857,Mt Hope / MLK,0
921,22146,CATAMI:9964,0,,3,1842,1842,42.74113423744858,-84.61713130535637,Saginaw / Maycroft Rd,0
922,22349,CATAMI:9965,0,,3,3208,3208,42.74115222385529,-84.62016201488697,Saginaw / Mall Dr E,0
923,22519,CATAMI:9966,0,,3,1844,1844,42.74150295878614,-84.62236534970894,Elmwood / Saginaw St,0
924,20942,CATAMI:9572,0,,3,5983,5983,42.72657424121696,-84.61277859493258,St Joseph / Chesley,0
925,18065,CATAMI:9682,0,,3,6121,6121,42.76062250911872,-84.51873666745009,Lake Lansing / Center,0
926,13639,CATAMI:8868,0,,3,4069,4069,42.72504539664662,-84.49360066407307,Harrison / Shaw Ln,0
927,17562,CATAMI:7703,0,,3,3013,3013,42.73286948356541,-84.55399002460142,Capitol / W Allegan St,0
928,20957,CATAMI:9469,0,,3,5984,5984,42.72668215965722,-84.61290449977955,St Joseph / Chesley,0
929,21822,CATAMI:10039,0,,3,1854,1854,42.74102631900833,-84.61232893476483,Saginaw / Harriet Ave,0
930,20530,CATAMI:7681,0,,3,3667,3667,42.73084601281055,-84.60283211202203,Waverly / Kalamazoo St,0
931,17737,CATAMI:10428,0,,3,3468,3468,42.72400218505745,-84.5672010403298,MLK / Olds Ave,0
932,21475,CATAMI:9961,0,,3,1839,1839,42.74115222385529,-84.60692401954853,Saginaw / Thomas L Pkwy,0
933,21654,CATAMI:9962,0,,3,1840,1840,42.74117021026201,-84.60963996696171,Saginaw / Clark Rd,0
934,19548,CATAMI:8329,0,,3,4762,4762,42.71440643707774,-84.60294902366564,Waverly / Old Lansing,0
935,17277,CATAMI:10719,0,,3,6181,6181,42.72725772467193,-84.55621134583008,Hillsdale / Walnut,0
936,19397,CATAMI:8992,0,,3,4720,4720,42.71732023496474,-84.59838047636134,Old Lansing / YMCA,0
937,14710,CATAMI:10053,0,,3,1908,1908,42.69695962256917,-84.54810846960729,Cedar / E Holmes Rd,0
938,20390,CATAMI:10598,0,,3,67,67,42.7261875334727,-84.6050714196574,St Joseph / Waverly (Store),0
939,15771,CATAMI:10348,0,,3,3493,3493,42.68313706901265,-84.57306460891722,Jolly / Tressa Dr,0
940,20314,CATAMI:7680,0,,3,3666,3666,42.72741960233232,-84.60284110522538,Waverly / St Joseph St,0
941,14927,CATAMI:10297,0,,3,3536,3536,42.71035949556802,-84.53802708864642,Pennsylvania / Kenwood Av,0
942,20694,CATAMI:8425,0,,3,3663,3663,42.7332292116996,-84.60300298288577,Waverly / Michigan Ave,0
943,18781,CATAMI:10614,0,,3,79,79,42.75126957762959,-84.54964630738098,Turner / North,0
944,20406,CATAMI:8424,0,,3,3662,3662,42.73392168835793,-84.59796678900702,Michigan / Stoner Rd,0
945,17329,CATAMI:10700,0,,3,1614,1614,42.72974884200125,-84.55403499061819,Capitol / Kalamazoo St,0
946,11672,CATAMI:7977,0,,3,4861,4861,42.72950602551067,-84.40978400880513,Times Square / Marsh,0
947,19650,CATAMI:8523,0,,3,3787,3787,42.75540645117286,-84.55926903497075,Grand River / Sadie Ct,0
948,21164,CATAMI:10556,0,,3,23,23,42.74096336658484,-84.60233748583751,Saginaw / Waverly,0
949,15756,CATAMI:10047,0,,3,1901,1901,42.71386684487644,-84.54721814247515,Cedar / Isbell St,0
950,18362,CATAMI:8644,0,,3,5703,5703,42.7607664003724,-84.52491499815493,Lake Lansing / Wood,0
951,16049,CATAMI:10516,0,,3,3486,3486,42.69661788084169,-84.56754278205729,MLK / Holmes Rd,0
952,21050,CATAMI:9959,0,,3,1837,1837,42.74117920346536,-84.60035898109942,Saginaw / Edgemont Blvd,0
953,22701,CATAMI:8007,0,,3,4491,4491,42.76284383034739,-84.60186983926306,Delta River / Waverly Rd,0
954,15921,CATAMI:10365,0,,3,4576,4576,42.66919760381251,-84.58235458798286,Miller / Grovenberg Rd,0
955,22521,CATAMI:8006,0,,3,2412,2412,42.76285282355074,-84.59887510254586,Delta River / Amherst Dr,0
956,20235,CATAMI:9996,0,,3,1865,1865,42.74830182052246,-84.57910804157173,Willow / Sunset Ave,0
957,14428,CATAMI:7956,0,,3,4604,4604,42.74689888079909,-84.45752892541644,Haslett / Ferndale Ave,0
958,22873,CATAMI:8008,0,,3,3767,3767,42.76448059335798,-84.60269721397171,Waverly / Delta River Dr,0
959,20470,CATAMI:8426,0,,3,4051,4051,42.72968588957777,-84.60302096929249,Waverly / Blanche Ave,0
960,21666,CATAMI:8514,0,,3,3720,3720,42.76434569530766,-84.58228264235602,Grand River / Delta St,0
961,24895,CATAMI:9975,0,,3,6131,6131,42.74112524424523,-84.65737589036968,Saginaw / Knights Inn Dr,0
962,19839,CATAMI:9998,0,,3,1867,1867,42.74828383411575,-84.57248904390251,Willow / Jenison Ave,0
963,23058,CATAMI:8010,0,,3,3769,3769,42.76765519414227,-84.60173494121273,Waverly / Franette Rd,0
964,12158,CATAMI:9494,0,,3,5802,5802,42.71666373111982,-84.47818631352271,Farm Lane / Green Way Drive,0
965,18600,CATAMI:8987,0,,3,2249,2249,42.72730269068871,-84.57708457081687,Everett / W Hillsdale St,0
966,12209,CATAMI:8631,0,,3,4749,4749,42.70857884130375,-84.4939513990039,Harrison Rd / Forest Acres CC,0
967,19976,CATAMI:8422,0,,3,3660,3660,42.73391269515458,-84.5913837641512,Michigan / Brynford Ave,0
968,21003,CATAMI:8517,0,,3,3781,3781,42.76199846923203,-84.57392795643929,Grand Riv. / Tecumseh River,0
969,20196,CATAMI:8423,0,,3,3661,3661,42.73392168835793,-84.59477420181601,Michigan / Bon Air Rd,0
970,21031,CATAMI:9989,0,,3,1858,1858,42.74472252558721,-84.5962131143528,Morris / Sylvan Ave,0
971,18780,CATAMI:9940,0,,3,1818,1818,42.74642224102129,-84.55674194482802,Walnut / Maple St,0
972,21157,CATAMI:9955,0,,3,1833,1833,42.74645821383471,-84.59627606677628,Morris / Cornelia Dr,0
973,21270,CATAMI:9991,0,,3,1860,1860,42.74812195645536,-84.59618613474274,Morris / Willow St,0
974,16867,CATAMI:9898,0,,3,1798,1798,42.69751720117718,-84.5783166396765,Holmes / Simkin,0
975,15159,CATAMI:10392,0,,3,4702,4702,42.66860405239109,-84.57280380601992,Haag / Miller,0
976,16286,CATAMI:9912,0,,3,1812,1812,42.71682560878021,-84.55229930237068,Washington / Baker St,0
977,20962,CATAMI:9993,0,,3,1862,1862,42.74830182052246,-84.591024036017,Willow / Westfield Rd,0
978,16483,CATAMI:9132,0,,3,5987,5987,42.75885984126115,-84.48369015397593,Abbot / Lake Lansing Rd,0
979,21202,CATAMI:9992,0,,3,1861,1861,42.74831081372582,-84.59487312705292,Willow / Gould,0
980,21158,CATAMI:9952,0,,3,1831,1831,42.74839175255602,-84.59407273195433,Willow / Briarwood Dr,0
981,14841,CATAMI:7881,0,,3,5808,5808,42.74956986219551,-84.46223237077108,Hagadorn / Cambria,0
982,22275,CATAMI:8005,0,,3,2411,2411,42.76188155758841,-84.59598828426893,Delta River / Newport Dr,0
983,18512,CATAMI:8643,0,,3,4873,4873,42.76475038945863,-84.52011262756339,/ Wal Mart,0
984,16955,CATAMI:10352,0,,3,3497,3497,42.683146062216,-84.58882969439841,Jolly / Ingham St,0
985,22327,CATAMI:9677,0,,3,4780,4780,42.76662996895981,-84.59063732827275,Grand River / Andrea,0
986,16074,CATAMI:8909,0,,3,3402,3402,42.72996467888176,-84.53228043170262,Kalamazoo / Holmes St,0
987,22579,CATAMI:8505,0,,3,3772,3772,42.76755626890537,-84.5937399834302,Grand River / Young Ave,0
988,18352,CATAMI:8530,0,,3,2390,2390,42.74315770820345,-84.55381915373766,Capitol / W Oakland Ave,0
989,18661,CATAMI:8528,0,,3,3792,3792,42.74748343901717,-84.55310869067263,Grand River / Washington,0
990,17564,CATAMI:8085,0,,3,5386,5386,42.73985720257219,-84.54456514748544,Larch Street / Erie,0
991,17905,CATAMI:8651,0,,3,4891,4891,42.74778920793123,-84.53876453132152,High St / Grand River,0
992,22795,CATAMI:8504,0,,3,3771,3771,42.76830270478383,-84.59643794443667,Grand River / Sheffer Av,0
993,16203,CATAMI:9005,0,,3,2348,2348,42.74085544814459,-84.51728876170995,Saginaw / N Foster Ave,0
994,22408,CATAMI:8507,0,,3,5742,5742,42.76893222901867,-84.58888365361854,Cap. City Blvd / Peckham,0
995,22660,CATAMI:8511,0,,3,2424,2424,42.77200790456606,-84.5889915720588,Capitol City / W Circle Dr,0
996,22893,CATAMI:10613,0,,3,82,82,42.77460694033563,-84.58944123222655,Capital Regional Airport Auth. Term,0
997,18873,CATAMI:8990,0,,3,6065,6065,42.72648430918341,-84.58212975789898,Clare / St. Joseph,0
998,13491,CATAMI:10226,0,,3,4377,4377,42.68799339882431,-84.53817097990009,Pennsylvania / Samantha,0
999,16510,CATAMI:9846,0,,3,1748,1748,42.7199012843276,-84.55242520721765,Washington / South St,0
1000,6920,CATAMI:7925,0,,3,4858,4858,42.68289425252207,-84.42808517763241,Jolly / Alaidon,0
1001,15046,CATAMI:8895,0,,3,6043,6043,42.73465913103304,-84.50491411389356,Morgan / Michigan,0
1002,15373,CATAMI:10368,0,,3,4739,4739,42.66589709818125,-84.57674282908938,Balfour Dr. / Georgetown,0
1003,19318,CATAMI:7689,0,,3,3675,3675,42.73377779710425,-84.58132936280039,Michigan / Clare St,0
1004,19690,CATAMI:7687,0,,3,3673,3673,42.73378679030761,-84.58710299935426,Michigan / Rosemary Ave,0
1005,17020,CATAMI:10673,0,,3,1674,1674,42.73342706217341,-84.5440345484875,Michigan / Larch St,0
1006,24737,CATAMI:9981,0,,3,6137,6137,42.72662820043708,-84.66620721606421,St. Joseph / Canal Rd,0
1007,19691,CATAMI:8421,0,,3,3658,3658,42.73391269515458,-84.58699508091401,Michigan / Alger St,0
1008,16181,CATAMI:7895,0,,3,2523,2523,42.75845514711018,-84.47593801268398,Lake Lansing / Towar Ave,0
1009,20278,CATAMI:9948,0,,3,1827,1827,42.74840074575937,-84.57968360658644,Willow / Sunset Ave,0
1010,20722,CATAMI:9950,0,,3,1829,1829,42.74841873216608,-84.58697709450729,Willow / Eastfield Rd,0
1011,20537,CATAMI:9949,0,,3,1828,1828,42.7484547049795,-84.58390141895991,Willow / Eastfield Rd,0
1012,21588,CATAMI:8002,0,,3,2408,2408,42.76255604784003,-84.58340679277538,Delta River / Benton Blvd,0
1013,21484,CATAMI:10612,0,,3,81,81,42.76332946332855,-84.58051997449846,Delta River / N Grand Riv.,0
1014,21394,CATAMI:8515,0,,3,3779,3779,42.76336543614197,-84.57889220469121,Grand River / Delta River,0
1015,12287,CATAMI:10235,0,,3,4733,4733,42.66170626541786,-84.53889942937184,Cedar / American,0
1016,17955,CATAMI:10333,0,,3,3474,3474,42.72473063452919,-84.56983604891279,MLK / William St,0
1017,18476,CATAMI:8332,0,,3,3636,3636,42.72545908400095,-84.57709356402023,Everett / Malcolm X,0
1018,16767,CATAMI:10424,0,,3,5907,5907,42.70901051506478,-84.56740788400697,MLK / Gordon,0
1019,13420,CATAMI:10072,0,,3,6039,6039,42.66122063243669,-84.55373821490747,Edgewood / Richard,0
1020,18701,CATAMI:8334,0,,3,3638,3638,42.72918227018989,-84.57665289705584,McPherson / Lenawee St,0
1021,13162,CATAMI:10791,0,,3,159,159,42.6869771668452,-84.53429490925411,CATA Offices,0
1022,18734,CATAMI:8985,0,,3,3593,3593,42.73040534584616,-84.57584350875389,McPherson / Kalamazoo St,0
1023,17036,CATAMI:9897,0,,3,1797,1797,42.69752619438054,-84.58065487254878,Holmes / Pleasant Grove,0
1024,12773,CATAMI:10231,0,,3,4382,4382,42.67429675011476,-84.53826091193365,Pennsylvania / Keystone,0
1025,18763,CATAMI:8340,0,,3,4643,4643,42.73733011242945,-84.56834317715588,Shiawassee / Bartlett St,0
1026,18736,CATAMI:8335,0,,3,3639,3639,42.73086399921726,-84.5753848553828,McPherson / Kalamazoo St,0
1027,18562,CATAMI:8648,0,,3,5706,5706,42.75610792103454,-84.53764038090215,Lake Lansing / New York,0
1028,14781,CATAMI:8961,0,,3,3870,3870,42.74162886363311,-84.48380706561954,Abbot / Centerlawn St,0
1029,18859,CATAMI:8337,0,,3,3641,3641,42.73374182429084,-84.57409882730303,Michigan / McPherson Ave,0
1030,19107,CATAMI:8418,0,,3,3655,3655,42.73448826016929,-84.57720148246048,Verlinden / Michigan Ave,0
1031,16553,CATAMI:9899,0,,3,5450,5450,42.69749921477047,-84.57393694964264,Holmes / Express Ct.,0
1032,18837,CATAMI:8982,0,,3,3590,3590,42.73456020579614,-84.57282179242664,Jenison / Ottawa St,0
1033,19134,CATAMI:7690,0,,3,3676,3676,42.73502785237059,-84.57703061159674,Verlinden / Inverness Av,0
1034,17139,CATAMI:10701,0,,3,1615,1615,42.72717678584173,-84.55406197022825,Capitol / Hillsdale,0
1035,14164,CATAMI:10495,0,,3,3533,3533,42.6991899370012,-84.53794614981622,Pennsylvania / Alden Sq,0
1036,19015,CATAMI:8981,0,,3,2243,2243,42.73701535031203,-84.57283078562999,Jenison / Shiawassee St,0
1037,20141,CATAMI:8521,0,,3,3785,3785,42.75815837139947,-84.56407140556229,Grand River / Coolidge St,0
1038,10221,CATAMI:10574,0,,3,33,33,42.62702847328125,-84.52218106433503,Davlind / Aurelius,0
1039,18934,CATAMI:8339,0,,3,4642,4642,42.7373211192261,-84.57115804980597,Shiawassee / Howe St,0
1040,19299,CATAMI:7691,0,,3,3677,3677,42.73734809883616,-84.57701262519004,Verlinden / Shiawassee St,0
1041,18987,CATAMI:8980,0,,3,3588,3588,42.737420044463,-84.57188649927772,Shiawassee / Westmoreland,0
1042,19522,CATAMI:8416,0,,3,3651,3651,42.74022592390974,-84.57722846207055,Verlinden / Genesee Dr,0
1043,18031,CATAMI:8652,0,,3,5999,5999,42.74751041862723,-84.54159739037831,Grand River after Case,0
1044,21222,CATAMI:8516,0,,3,3780,3780,42.76277188472054,-84.57672484268267,Grand River / Edgebrook,0
1045,18432,CATAMI:10710,0,,3,1816,1816,42.74193463254718,-84.55687684287834,Walnut / Saginaw St,0
1046,19108,CATAMI:7695,0,,3,2338,2338,42.74089142095801,-84.5696561848457,Saginaw / Bartlett St,0
1047,15001,CATAMI:10051,0,,3,1906,1906,42.70165407472045,-84.54811746281064,Cedar / Paris Ave,0
1048,13228,CATAMI:8866,0,,3,4755,4755,42.72047684934232,-84.49362764368313,Harrison / Trowbridge,0
1049,18349,CATAMI:8654,0,,3,5998,5998,42.74749243222053,-84.5474699521691,Grand River / Cedar,0
1050,16145,CATAMI:9131,0,,3,3846,3846,42.75548739000305,-84.48366317436587,Abbot / Taylor Dr,0
1051,13275,CATAMI:9558,0,,3,6063,6063,42.72418204912454,-84.4874852857917,Chestnut / Wilson,0
1052,19291,CATAMI:8413,0,,3,3648,3648,42.74302281015312,-84.57002490618325,Oakland / Holten St,0
1053,10107,CATAMI:9177,0,,3,2887,2887,42.71192431295178,-84.43311237830781,Mt Hope / Seminole Pl,0
1054,19486,CATAMI:8414,0,,3,3649,3649,42.74303180335648,-84.57324447298431,Oakland / Jenison Ave,0
1055,15786,CATAMI:8888,0,,3,2475,2475,42.74345448391416,-84.5035111741702,Coolidge / Melody Ln,0
1056,13111,CATAMI:10492,0,,3,4807,4807,42.7219967007093,-84.48827668768695,Wilson / Chestnut,0
1057,16568,CATAMI:7898,0,,3,4828,4828,42.75939943346245,-84.48451752868459,Lake Lansing / Abbott,0
1058,19993,CATAMI:9946,0,,3,1825,1825,42.7483557797426,-84.57498915443517,Willow / Comfort Ave,0
1059,14362,CATAMI:10374,0,,3,4745,4745,42.669260556236,-84.56217383965439,Miller / Washington,0
1060,10626,CATAMI:9296,0,,3,4006,4006,42.68766964350353,-84.29931149879317,Grand River / Love St,0
1061,15564,CATAMI:9766,0,,3,1683,1683,42.73355296702038,-84.5172797685066,Michigan / Foster Ave,0
1062,20111,CATAMI:9947,0,,3,1826,1826,42.74839175255602,-84.57691369995312,Willow / Cleo St,0
1063,7786,CATAMI:9161,0,,3,4133,4133,42.69455843727341,-84.40750872835633,Carriage Lane,0
1064,14759,CATAMI:10684,0,,3,1688,1688,42.73326518451302,-84.50152367622876,Michigan Ave / Friendship Cl,0
1065,21259,CATAMI:8000,0,,3,3760,3760,42.76296973519435,-84.57708457081687,Grand River / Westwood Av,0
1066,13704,CATAMI:7972,0,,3,2665,2665,42.74790611957485,-84.40848898752202,Marsh / Haslett Rd,0
1067,15723,CATAMI:10122,0,,3,3794,3794,42.72495546461307,-84.53313478602134,Holmes / Malcolm X,0
1068,17766,CATAMI:7702,0,,3,3012,3012,42.7355854309786,-84.55393606538128,Capitol / W Ionia St,0
1069,17996,CATAMI:10429,0,,3,3469,3469,42.72767141202626,-84.56723701314323,MLK / W Hillsdale St,0
1070,20871,CATAMI:9957,0,,3,1835,1835,42.7423483199015,-84.5963120395897,Morris / Upton Rd,0
1071,17603,CATAMI:10435,0,,3,6162,6162,42.72830992946446,-84.56023130772974,Pine / Lenawee,0
1072,18132,CATAMI:10332,0,,3,3472,3472,42.72903837893621,-84.56785754417471,MLK / Kalamazoo St,0
1073,17143,CATAMI:10206,0,,3,2198,2198,42.73709628914222,-84.54103981177032,Shiawassee Near Dorrance Pl,0
1074,17757,CATAMI:10329,0,,3,3046,3046,42.73009957693209,-84.56062700867734,Kalamazoo / S Pine St,0
1075,15844,CATAMI:10213,0,,3,4365,4365,42.72268018416428,-84.53819795951016,Pennsylvania / Hazel St,0
1076,15704,CATAMI:9614,0,,3,6087,6087,42.71204122459539,-84.54837826570794,Mt Hope / Cedar,0
1077,15387,CATAMI:9821,0,,3,5886,5886,42.73657468334764,-84.50841246999863,Clippert / Sellers,0
1078,17975,CATAMI:10330,0,,3,3047,3047,42.7301175633388,-84.56412536478241,Kalamazoo / S Butler Blvd,0
1079,18160,CATAMI:10430,0,,3,3470,3470,42.7303783662361,-84.56678735297548,MLK / W Kalamazoo St,0
1080,17302,CATAMI:10542,0,,3,1599,1599,42.73215002729701,-84.55056361412318,Grand Ave / E Allegan St,0
1081,18240,CATAMI:10431,0,,3,5608,5608,42.73159244868901,-84.56667044133187,MLK / Washtenaw,0
1082,16298,CATAMI:10677,0,,3,1678,1678,42.73346303498683,-84.53117426768996,Michigan / Holmes St,0
1083,17847,CATAMI:10434,0,,3,6161,6161,42.73170036712926,-84.5601773485096,Pine / Allegan,0
1084,18044,CATAMI:10699,0,,3,1622,1622,42.73435336211897,-84.5601593621029,Pine St / Ottawa,0
1085,18410,CATAMI:8342,0,,3,4644,4644,42.73730313281938,-84.56255155419531,Shiawassee / Sycamore St,0
1086,10337,CATAMI:9290,0,,3,5514,5514,42.71750909223519,-84.40886670206292,Grand River / Dobie,0
1087,15086,CATAMI:9107,0,,3,3896,3896,42.74060363845064,-84.49368160290325,Harrison / Wildwood Dr,0
1088,18566,CATAMI:8977,0,,3,3029,3029,42.73742903766636,-84.56497971910113,Shiawassee / N Butler Blvd,0
1089,14998,CATAMI:10391,0,,3,4562,4562,42.66931451545612,-84.5703936275208,Miller / Winterset Dr,0
1090,18913,CATAMI:10600,0,,3,978,978,42.74085544814459,-84.56644561124799,Saginaw / MLK,0
1091,18729,CATAMI:7697,0,,3,2340,2340,42.74088242775465,-84.56333396288719,Saginaw / Wisconsin Ave,0
1092,13436,CATAMI:7870,0,,3,5761,5761,42.73065715554009,-84.47680136020605,Farm / Dormitory,0
1093,18886,CATAMI:8411,0,,3,3646,3646,42.74297784413635,-84.5632710104637,Oakland / Wisconsin Ave,0
1094,19148,CATAMI:8412,0,,3,3647,3647,42.74299583054306,-84.56766868690426,Oakland / MLK Blvd,0
1095,18702,CATAMI:10004,0,,3,1874,1874,42.74310374898332,-84.55995251842573,Pine St / W Oakland Ave,0
1096,18756,CATAMI:8410,0,,3,3645,3645,42.74359837516784,-84.56023130772974,Oakland / Pine St,0
1097,10359,CATAMI:10264,0,,3,3318,3318,42.63411511752494,-84.52329622155104,Aurelius / Weswilmar Dr,0
1098,17982,CATAMI:10725,0,,3,1610,1610,42.73834634440856,-84.55396304499135,Capitol / Genessee St,0
1099,18925,CATAMI:10003,0,,3,3230,3230,42.74592761483677,-84.55996151162908,Pine / W Maple St,0
1100,19579,CATAMI:9999,0,,3,1868,1868,42.74824786130234,-84.5681003606653,Willow / Linwood St,0
1101,16986,CATAMI:8914,0,,3,5579,5579,42.72908334495298,-84.54916966760317,Cherry / Kalamazoo,0
1102,10699,CATAMI:10272,0,,3,3329,3329,42.64809954874185,-84.52421352829325,Cedar / Aurelius Rd,0
1103,16525,CATAMI:9003,0,,3,3690,3690,42.7408734345513,-84.52364695648188,Saginaw / Clemens Ave,0
1104,18026,CATAMI:9886,0,,3,1786,1786,42.68919848807387,-84.59955858600084,Sumpter / Anson St,0
1105,18601,CATAMI:8646,0,,3,5737,5737,42.76005593730736,-84.53132715214699,Lake Lansing / Chamberlain,0
1106,17247,CATAMI:9618,0,,3,6104,6104,42.71213115662894,-84.57162569638042,Mt. Hope / Park,0
1107,19245,CATAMI:9943,0,,3,1821,1821,42.74894933116402,-84.56137344455581,Willow / Christopher St,0
1108,17073,CATAMI:9890,0,,3,1790,1790,42.68667139793114,-84.5883530546206,Reo / Ingham St,0
1109,20603,CATAMI:8519,0,,3,3783,3783,42.76051459067846,-84.56892773537395,Grand River / Hollywood,0
1110,16179,CATAMI:9911,0,,3,1811,1811,42.71526978459981,-84.55231728877739,Washington / Barnes Ave,0
1111,18345,CATAMI:8683,0,,3,5699,5699,42.76064948872878,-84.52480707971466,Lk Lansing / Wood,0
1112,17400,CATAMI:9016,0,,3,3707,3707,42.75393156582265,-84.5176754694542,Hayford / Groesbeck Ave,0
1113,14363,CATAMI:8707,0,,3,4608,4608,42.75251063969257,-84.4247936652045,Lacdumont Near #2074,0
1114,13375,CATAMI:9502,0,,3,2576,2576,42.7176080174721,-84.50150568982205,Middlevale Near Laundromat,0
1115,16338,CATAMI:9847,0,,3,1749,1749,42.71744613981171,-84.552434200421,Washington / Baker St,0
1116,17142,CATAMI:9048,0,,3,3741,3741,42.74357139555777,-84.5310843356564,Oakland / Mahlon St,0
1117,16058,CATAMI:7888,0,,3,2513,2513,42.76090129842272,-84.46343746002063,Birch Row / Cobbler's Dr,0
1118,16498,CATAMI:9913,0,,3,1813,1813,42.71985631831082,-84.55227232276061,Washington Ave / South St,0
1119,16660,CATAMI:9914,0,,3,1814,1814,42.7220956259462,-84.55229030916733,Washington / Elm St,0
1120,16740,CATAMI:9844,0,,3,1746,1746,42.72310286472195,-84.552434200421,Washington / Hazel St,0
1121,16989,CATAMI:9916,0,,3,3005,3005,42.72664618684379,-84.55224534315056,Washington / St Joseph,0
1122,17449,CATAMI:9919,0,,3,4439,4439,42.72897542651273,-84.55693979530183,Walnut / Lenawee St,0
1123,14261,CATAMI:10619,0,,3,177,177,42.7315744622823,-84.49413126307101,Brody Complex,0
1124,17395,CATAMI:10327,0,,3,1644,1644,42.73003662450861,-84.5547724332933,Kalamazoo / Townsend St,0
1125,16577,CATAMI:8884,0,,3,3821,3821,42.75187212225437,-84.50356513339032,Coolidge / Woodbrook Dr,0
1126,12918,CATAMI:8723,0,,3,3937,3937,42.73083701960719,-84.46219639795765,Hagadorn / Old Canton Ln,0
1127,13368,CATAMI:9559,0,,3,4808,4808,42.72509935586675,-84.48768313626552,Chestnut / Shaw,0
1128,17559,CATAMI:10328,0,,3,3045,3045,42.73008159052538,-84.55740744187628,Kalamazoo / S Walnut St,0
1129,17419,CATAMI:7704,0,,3,3014,3014,42.73100789047093,-84.55398103139805,Capitol / W Washtenaw St,0
1130,17816,CATAMI:9055,0,,3,3038,3038,42.73261767387147,-84.558540585499,Allegan / S Pine St,0
1131,17234,CATAMI:9000,0,,3,4696,4696,42.74084645494123,-84.53713676151428,Saginaw / Pennsylvania,0
1132,16755,CATAMI:9861,0,,3,4501,4501,42.69761612641408,-84.57668886986926,Holmes / 1809 W Holmes,0
1133,16797,CATAMI:9013,0,,3,3703,3703,42.74847269138621,-84.51543616181883,Hopkins / Downer St,0
1134,14325,CATAMI:8615,0,,3,1725,1725,42.7350458387773,-84.4881867556534,Michigan / Delta St,0
1135,24610,CATAMI:10024,0,,3,6148,6148,42.73018950896564,-84.66189947165721,Canal / Willamsburg Rd,0
1136,17719,CATAMI:9052,0,,3,3033,3033,42.73472208345652,-84.55425982070206,Ottawa / N Capitol Ave,0
1137,15843,CATAMI:8129,0,,3,2545,2545,42.74856262341976,-84.49354670485293,Harrison / Woodingham Dr,0
1138,19076,CATAMI:7992,0,,3,3752,3752,42.75224983679528,-84.55356734404373,North / Capitol Ave,0
1139,14797,CATAMI:9282,0,,3,5512,5512,42.7377797725972,-84.49315100390531,Grand River / Harrison,0
1140,17951,CATAMI:9053,0,,3,3034,3034,42.73474006986324,-84.55813589134803,Ottawa St / Chestnut St,0
1141,18887,CATAMI:8979,0,,3,3587,3587,42.73743803086971,-84.57024074306376,Shiawassee / Carey St,0
1142,18627,CATAMI:9062,0,,3,4510,4510,42.75633275111841,-84.53851272162758,High / Gier St,0
1143,12892,CATAMI:9318,0,,3,5955,5955,42.72560297525462,-84.47547036610953,Ramp 1 Bay 4,0
1144,18341,CATAMI:10711,0,,3,1619,1619,42.7383373512052,-84.5600784232727,Pine / Genessee St,0
1145,18133,CATAMI:8343,0,,3,5751,5751,42.7372401803959,-84.55800099329771,Shiawassee / Chestnut,0
1146,18033,CATAMI:8141,0,,3,5942,5942,42.77307809576529,-84.48699965281055,Coleman / Hunsaker,0
1147,18100,CATAMI:8975,0,,3,1627,1627,42.73733011242945,-84.55731750984273,Shiawassee / Walnut,0
1148,17774,CATAMI:10481,0,,3,1625,1625,42.73733011242945,-84.55175971016939,Shiawassee St / Washington Ave,0
1149,18332,CATAMI:7699,0,,3,5754,5754,42.74089142095801,-84.55656208076093,Saginaw / Walnut,0
1150,18582,CATAMI:8409,0,,3,3644,3644,42.74358938196448,-84.55720959140248,Oakland / Walnut St,0
1151,18557,CATAMI:8529,0,,3,2446,2446,42.74571177795625,-84.55381016053431,Capitol / Kilborn St,0
1152,11108,CATAMI:9799,0,,3,1713,1713,42.72223951719988,-84.42800423880222,Gr. River / Okemos Rd,0
1153,17820,CATAMI:9088,0,,3,5947,5947,42.76499320594921,-84.50317842564607,Coolidge / Abbey,0
1154,19041,CATAMI:8525,0,,3,3789,3789,42.75198903389798,-84.55331553434979,North / Washington Ave,0
1155,16995,CATAMI:9047,0,,3,3740,3740,42.74338253828732,-84.52856623871703,Oakland / June St,0
1156,16004,CATAMI:9902,0,,3,1801,1801,42.69749022156712,-84.56622977436747,Holmes / MLK,0
1157,18517,CATAMI:8527,0,,3,6006,6006,42.74746545261046,-84.55055462091983,Grand River / Turner,0
1158,19081,CATAMI:9942,0,,3,1820,1820,42.74878745350363,-84.55870246315939,Willow / Chestnut St,0
1159,12621,CATAMI:10282,0,,3,3521,3521,42.67132899300763,-84.53808104786654,Pennsylvania / and. Jack.,0
1160,19355,CATAMI:9665,0,,3,3788,3788,42.75371572894213,-84.55644516911731,Grand River / Seager St,0
1161,19659,CATAMI:7994,0,,3,3754,3754,42.75552336281648,-84.55926903497075,Grand River / Spikes Ln,0
1162,15892,CATAMI:9854,0,,3,1755,1755,42.70288614358007,-84.5600964096794,Washington / Dunlap St,0
1163,15393,CATAMI:10124,0,,3,3796,3796,42.7209984551369,-84.53274807827707,Perkins / Holmes St,0
1164,19512,CATAMI:8110,0,,3,2223,2223,42.75789756850217,-84.55292882660552,Thomas / Turner St,0
1165,15632,CATAMI:8907,0,,3,4855,4855,42.73004561771196,-84.52416856227647,Kalamazoo / Regent,0
1166,20010,CATAMI:8108,0,,3,3568,3568,42.76216034689241,-84.5555278623751,Turner / Filley,0
1167,20261,CATAMI:8107,0,,3,3567,3567,42.76491226711902,-84.55583363128918,Turner / Paulson St,0
1168,20644,CATAMI:8105,0,,3,3565,3565,42.76936390277971,-84.55583363128918,Turner / Sheridan Rd,0
1169,20507,CATAMI:8104,0,,3,3564,3564,42.76975061052397,-84.55248815964114,Sheridan / Creston Ave,0
1170,17001,CATAMI:7900,0,,3,2550,2550,42.76016385574761,-84.49428414752803,Lake Lansing / N Harrison,0
1171,6994,CATAMI:7924,0,,3,4137,4137,42.68287626611536,-84.4305403221483,Jolly / Okemos,0
1172,16224,CATAMI:10103,0,,3,1990,1990,42.72202368031936,-84.54532057656726,Cedar / E Elm St,0
1173,10569,CATAMI:7938,0,,3,5385,5385,42.71913686204243,-84.41452342697318,Gr River / Washington Hts,0
1174,16765,CATAMI:9261,0,,3,1898,1898,42.72545009079759,-84.55001502871853,Malcolm X / S Grand Ave,0
1175,16604,CATAMI:10305,0,,3,3544,3544,42.73265364668489,-84.53784722457931,Pennsylvania / Eureka St,0
1176,17155,CATAMI:10426,0,,3,5895,5895,42.71519783897297,-84.56733593838013,MLK / Barnes,0
1177,16723,CATAMI:8917,0,,3,3353,3353,42.72988374005157,-84.54368381355667,Kalamazoo / Beech St,0
1178,16734,CATAMI:8912,0,,3,3405,3405,42.73000065169519,-84.54372877957344,Kalamazoo / Beech St,0
1179,15210,CATAMI:9822,0,,3,1732,1732,42.73459617860956,-84.50840347679528,Clippert St / Michigan Ave,0
1180,17150,CATAMI:10672,0,,3,1673,1673,42.73345404178347,-84.54625586971618,Michigan / Cedar St,0
1181,16897,CATAMI:9832,0,,3,1743,1743,42.73363390585057,-84.54162436998838,Michigan / Hosmer St,0
1182,15571,CATAMI:10416,0,,3,3455,3455,42.6875167590465,-84.56755177526064,MLK / Vincent Ct,0
1183,17098,CATAMI:9833,0,,3,1744,1744,42.733669878664,-84.54505977366996,Michigan / Larch St,0
1184,25155,CATAMI:9976,0,,3,6132,6132,42.73991116179231,-84.6620793357243,Canal / Saginaw,0
1185,15381,CATAMI:10300,0,,3,3539,3539,42.71672668354331,-84.53793715661287,Pennsylvania / Baker,0
1186,26133,CATAMI:9986,0,,3,6141,6141,42.74147597917607,-84.6746518340145,Marketplace / Saginaw Hwy,0
1187,18564,CATAMI:8680,0,,3,5697,5697,42.75755582677468,-84.53513127716613,Lake Lansing / Commonwealth,0
1188,12528,CATAMI:8857,0,,3,5602,5602,42.71252685757656,-84.49361865047977,Harrison Road / Mt Hope,0
1189,17472,CATAMI:10547,0,,3,1600,1600,42.73438034172904,-84.55050965490305,Grand Ave / E Michigan Ave,0
1190,22018,CATAMI:10038,0,,3,1853,1853,42.74100833260162,-84.61532367148203,Saginaw St / Julian Ave,0
1191,17665,CATAMI:10578,0,,3,1601,1601,42.736862465855,-84.5505186481064,Grand / Shiawassee St,0
1192,17495,CATAMI:9076,0,,3,3024,3024,42.73730313281938,-84.54696633278121,Shiawassee / Cedar,0
1193,17717,CATAMI:10597,0,,3,1603,1603,42.73753695610662,-84.55049166849635,Grand / Shiawassee St,0
1194,16851,CATAMI:8052,0,,3,4830,4830,42.75943540627587,-84.49217973794299,Lake Lansing / Harrison,0
1195,17379,CATAMI:8084,0,,3,4638,4638,42.73758192212339,-84.54453816787539,Larch / Shiawassee,0
1196,17625,CATAMI:9075,0,,3,4509,4509,42.73919170552392,-84.54659761144366,Cedar / Riverfront Apts,0
1197,17857,CATAMI:8998,0,,3,5740,5740,42.74085544814459,-84.54833329969117,Saginaw / Cedar,0
1198,18504,CATAMI:7987,0,,3,3747,3747,42.74628734297096,-84.55204749267675,Washington / Maple St,0
1199,17832,CATAMI:9074,0,,3,3585,3585,42.7417907412935,-84.54657063183359,Cedar / E Saginaw St,0
1200,19117,CATAMI:8328,0,,3,3615,3615,42.7064924181254,-84.60298499647907,Waverly / Glasgow Dr,0
1201,19037,CATAMI:9060,0,,3,3573,3573,42.75877890243095,-84.54240677868026,Gier / East St,0
1202,17957,CATAMI:9073,0,,3,3584,3584,42.74332857906719,-84.54656163863024,Cedar / Oakland Ave,0
1203,11532,CATAMI:9684,0,,3,4607,4607,42.72778832366987,-84.41544972691874,Central Park / Marsh Rd,0
1204,18511,CATAMI:7988,0,,3,3748,3748,42.74744746620375,-84.55049166849635,Grand River / Turner,0
1205,18216,CATAMI:8653,0,,3,6004,6004,42.74749243222053,-84.5450327940599,Grand River / Larch,0
1206,18438,CATAMI:8673,0,,3,6062,6062,42.74737552057691,-84.54925060643336,Cesar Chavez / Turner,0
1207,18492,CATAMI:7989,0,,3,2395,2395,42.74787913996478,-84.5495024161273,Turner / Grand River Ave,0
1208,20018,CATAMI:7995,0,,3,3755,3755,42.75752884716462,-84.56278537748253,Grand Riv / Gr. Riv. Access,0
1209,18811,CATAMI:8097,0,,3,4053,4053,42.75595503657751,-84.54273053400104,N East / Lake Lansing,0
1210,23481,CATAMI:9972,0,,3,6126,6126,42.74112524424523,-84.63693433914392,Saginaw / Garfield Ave,0
1211,10394,CATAMI:10265,0,,3,3319,3319,42.63668717368444,-84.52331420795775,Aurelius / Sycamore St,0
1212,19324,CATAMI:8111,0,,3,2224,2224,42.75789756850217,-84.54937651128033,Thomas / Gary Ave,0
1213,15254,CATAMI:8925,0,,3,3805,3805,42.72992870606834,-84.51728876170995,Kalamazoo / Foster,0
1214,12421,CATAMI:10696,0,,3,1699,1699,42.72777033726317,-84.45657564586082,Gr. River / Brookfield,0
1215,19781,CATAMI:8101,0,,3,3561,3561,42.76708862233091,-84.54266758157756,N East / Orchard Glen,0
1216,11197,CATAMI:10151,0,,3,5797,5797,42.67799295669363,-84.51361054153779,Dunckel / Legacy (Trinity),0
1217,20260,CATAMI:8103,0,,3,3562,3562,42.76972363091391,-84.54762283662612,Sheridan / Cedar St,0
1218,15363,CATAMI:10215,0,,3,4367,4367,42.71625903696886,-84.5381889663068,Pennsylvania / Baker St,0
1219,24463,CATAMI:9980,0,,3,6136,6136,42.72706886740148,-84.66211530853772,Canal / St. Joseph Hwy,0
1220,6417,CATAMI:9188,0,,3,4679,4679,42.59086680259108,-84.46059560776048,Cedar / Kern,0
1221,15538,CATAMI:10197,0,,3,3838,3838,42.72268917736763,-84.532999887971,Holmes / Walsh St,0
1222,15918,CATAMI:10302,0,,3,3541,3541,42.72377735497358,-84.53802708864642,Pennsylvania / Hazel St,0
1223,16005,CATAMI:10212,0,,3,4477,4477,42.72479358695268,-84.53817997310345,Pennsylvania / Malcolm X,0
1224,20640,CATAMI:7682,0,,3,3668,3668,42.73256371465134,-84.60281412561532,Waverly / W Michigan Ave,0
1225,15956,CATAMI:10121,0,,3,2442,2442,42.72545908400095,-84.5364532780593,Malcolm X / S Pennsylvania Ave,0
1226,16224,CATAMI:10211,0,,3,4364,4364,42.72768040522961,-84.53808104786654,Pennsylvania / Heald Pl,0
1227,12895,CATAMI:10137,0,,3,3370,3370,42.69648298279137,-84.52131771681296,Provincial House / Callihan,0
1228,16372,CATAMI:10210,0,,3,4363,4363,42.7295779711375,-84.53806306145984,Pennsylvania / Kalamazoo,0
1229,16908,CATAMI:9100,0,,3,3889,3889,42.75947137908928,-84.49361865047977,Harrison Rd / Tarleton Ave,0
1230,16508,CATAMI:8918,0,,3,3354,3354,42.72985676044151,-84.54005055940127,Kalamazoo / S Hosmer St,0
1231,16508,CATAMI:10209,0,,3,4362,4362,42.73132265258836,-84.53801809544306,Pennsylvania / Prospect St,0
1232,16634,CATAMI:10675,0,,3,1676,1676,42.73342706217341,-84.5372716595646,Michigan / Pennsylvania,0
1233,16786,CATAMI:10674,0,,3,1675,1675,42.73344504858012,-84.53991566135095,Michigan after S Hosmer St,0
1234,18099,CATAMI:8641,0,,3,4802,4802,42.76281685073732,-84.51484261039741,Etc Drive / Mitchells,0
1235,16538,CATAMI:9830,0,,3,1741,1741,42.73365189225728,-84.53522120919968,Michigan / Holmes St,0
1236,17081,CATAMI:10307,0,,3,4359,4359,42.73721320078584,-84.53977177009727,Shiawassee / Haag Ct,0
1237,16971,CATAMI:9001,0,,3,3687,3687,42.74085544814459,-84.53221747927913,Saginaw / Clark St,0
1238,15566,CATAMI:10048,0,,3,1902,1902,42.71026956353447,-84.54811746281064,Cedar / E Mt Hope Ave,0
1239,18468,CATAMI:8685,0,,3,4872,4872,42.7645975050016,-84.51943813731178,/ Sams Club,0
1240,17299,CATAMI:8086,0,,3,3548,3548,42.7412511490922,-84.53770333332564,Pennsylvania / Saginaw St,0
1241,17635,CATAMI:9050,0,,3,3583,3583,42.74372428001481,-84.54009552541805,Oakland / Ballard St,0
1242,17523,CATAMI:8087,0,,3,3549,3549,42.74392213048861,-84.5377303129357,Pennsylvania / Oakland Ave,0
1243,17794,CATAMI:8089,0,,3,3551,3551,42.74715069049304,-84.53768534691892,Pennsylvania / Grand River,0
1244,19447,CATAMI:10000,0,,3,1869,1869,42.74822987489563,-84.56586105302992,Willow / MLK Jr Blvd,0
1245,13841,CATAMI:8119,0,,3,2879,2879,42.73076507398036,-84.486352142169,Red Cedar / Chestnut Rd,0
1246,17488,CATAMI:7903,0,,3,5910,5910,42.7620434352488,-84.50200031600657,Meijer Lake Lansing Boarding Center (West Side),0
1247,17754,CATAMI:9068,0,,3,3579,3579,42.74746545261046,-84.53640831204252,Grand River / Massachusetts,0
1248,17779,CATAMI:9067,0,,3,3578,3578,42.74880543991034,-84.53469061020174,Vermont Ave / Taft St,0
1249,18184,CATAMI:8677,0,,3,5590,5590,42.75112568637591,-84.53865661288125,High St / North,0
1250,16088,CATAMI:8057,0,,3,4832,4832,42.75823031702631,-84.4737616574721,Birch Row / Rutherford,0
1251,18040,CATAMI:10443,0,,3,3577,3577,42.75165628537385,-84.53497839270909,Vermont / North St,0
1252,16821,CATAMI:9894,0,,3,1794,1794,42.69101511515156,-84.58223767633925,Pleasant Grove / Mary Ave,0
1253,18427,CATAMI:8095,0,,3,4045,4045,42.75393156582265,-84.53867459928797,High / Whyte St,0
1254,9901,CATAMI:10268,0,,3,3325,3325,42.64129169380217,-84.51624555012077,Cedar / Veterans Dr,0
1255,18660,CATAMI:8096,0,,3,4639,4639,42.75554134922319,-84.54049122636566,Lake Lansing / High St,0
1256,7602,CATAMI:9162,0,,3,5540,5540,42.69274181019571,-84.40921743699377,Ingham County Care Facility,0
1257,18579,CATAMI:8647,0,,3,5705,5705,42.75788857529882,-84.5348165150487,Lake Lansing / Commonwealt,0
1258,17140,CATAMI:7901,0,,3,2551,2551,42.76073942076233,-84.49639755031644,Lake Lansing / Barclay Ln,0
1259,18822,CATAMI:9061,0,,3,3575,3575,42.75877890243095,-84.53814400029003,Ebs Gier / Eighth Ave,0
1260,15148,CATAMI:10126,0,,3,3799,3799,42.72103442795032,-84.52852127270025,Perkins / Lathrop St,0
1261,14302,CATAMI:8872,0,,3,1693,1693,42.73469510384646,-84.48844755855069,Michigan Ave / Delta St,0
1262,10009,CATAMI:9156,0,,3,3982,3982,42.71444240989116,-84.41039554663327,Dobie / Chief Okemos Cir,0
1263,14960,CATAMI:10127,0,,3,5786,5786,42.72104342115367,-84.52525673988241,Perkins / Leslie,0
1264,15298,CATAMI:10196,0,,3,3836,3836,42.72109738037381,-84.53101239002957,Perkins / Dakin St,0
1265,15171,CATAMI:10195,0,,3,3835,3835,42.72113335318723,-84.52878207559755,Perkins / Lathrop St,0
1266,12163,CATAMI:10163,0,,3,6073,6073,42.66934149506619,-84.53316176563139,Miller / Beechfield,0
1267,13154,CATAMI:10112,0,,3,4345,4345,42.68295720494555,-84.53739756441156,Jolly after S Pennsylvania,0
1268,15031,CATAMI:10194,0,,3,3834,3834,42.72114234639058,-84.52633592428501,Perkins / Shepard St,0
1269,14968,CATAMI:10193,0,,3,5787,5787,42.72115133959394,-84.5252387534757,Perkins / Leslie,0
1270,13280,CATAMI:9608,0,,3,2038,2038,42.70468478425106,-84.5181161364186,Forest / Aurora Rd,0
1271,14900,CATAMI:10128,0,,3,3801,3801,42.72134019686439,-84.52377286132885,Regent / Perkins St,0
1272,12999,CATAMI:10229,0,,3,4380,4380,42.67889227702912,-84.53823393232358,Pennsylvania / Armstrong,0
1273,15064,CATAMI:10129,0,,3,3802,3802,42.72342662004273,-84.52372789531208,Regent / Malcolm X St,0
1274,16046,CATAMI:10478,0,,3,3356,3356,42.72978481481466,-84.53206459482209,Kalamazoo / S Holmes St,0
1275,16095,CATAMI:7894,0,,3,2522,2522,42.75833823546657,-84.47362675942176,Birch Row / Porter Ave,0
1276,16814,CATAMI:9002,0,,3,3688,3688,42.74084645494123,-84.52926770857871,Saginaw / Maryland Ave,0
1277,16128,CATAMI:10678,0,,3,1679,1679,42.73347202819019,-84.5280716125325,Michigan / Lathrop St,0
1278,17850,CATAMI:9018,0,,3,3709,3709,42.75689032972642,-84.52154254689682,Tulane / Northampton Way,0
1279,15493,CATAMI:10347,0,,3,3492,3492,42.68313706901265,-84.56934142272827,Jolly / MLK Blvd,0
1280,18554,CATAMI:8679,0,,3,5696,5696,42.75619785306809,-84.53728964597131,Lake Lansing / New York,0
1281,14482,CATAMI:9109,0,,3,168,168,42.73419148445858,-84.49362764368313,Harrison / Michigan,0
1282,14755,CATAMI:10094,0,,3,3343,3343,42.69784994970131,-84.54796457835361,Cedar / Holmes Rd,0
1283,15998,CATAMI:10679,0,,3,1680,1680,42.73348102139354,-84.52563445442333,Michigan / Sheperd St,0
1284,17419,CATAMI:10716,0,,3,1624,1624,42.73711427554893,-84.54589614158198,Shiawassee / Cedar St,0
1285,6729,CATAMI:7926,0,,3,5384,5384,42.68284029330194,-84.42121437026924,Jolly / Fairhills Dr,0
1286,16753,CATAMI:9046,0,,3,2385,2385,42.74328361305042,-84.52400668461608,Grand River / Wood St,0
1287,13642,CATAMI:10386,0,,3,4557,4557,42.66935048826954,-84.55271298972501,Miller / Coulson Ct,0
1288,17954,CATAMI:9019,0,,3,3711,3711,42.75727703747069,-84.52300843904368,Wood / Northampton Way,0
1289,18301,CATAMI:8976,0,,3,3028,3028,42.73739306485294,-84.56062700867734,Shiawassee / N Pine St,0
1290,18005,CATAMI:9031,0,,3,3726,3726,42.75776267045185,-84.52315233029736,Wood / Barritt St,0
1291,12290,CATAMI:9787,0,,3,5801,5801,42.72718577904509,-84.45431835181873,Grand River Between Northwind D,0
1292,16070,CATAMI:9006,0,,3,2349,2349,42.74084645494123,-84.51461778031353,Saginaw / Kipling Blvd,0
1293,18194,CATAMI:9020,0,,3,3713,3713,42.75990305285033,-84.52299045263698,Wood / Lake Lansing Rd,0
1294,12623,CATAMI:10795,0,,3,1720,1720,42.72879556244563,-84.45957937578137,Gr. River / Maplewood D,0
1295,18588,CATAMI:8681,0,,3,5736,5736,42.75992103925704,-84.53130017253693,Lake Lansing / Chamberlain,0
1296,14672,CATAMI:10685,0,,3,1689,1689,42.73327417771638,-84.49966208313428,Michigan / Highland Ave,0
1297,18210,CATAMI:9030,0,,3,3725,3725,42.76001996449394,-84.52313434389065,Wood / Lake Lansing Rd,0
1298,19877,CATAMI:8522,0,,3,3786,3786,42.75669247925261,-84.56147236979271,Grand River / Culver St,0
1299,18525,CATAMI:8645,0,,3,5704,5704,42.76074841396569,-84.52842234746335,Lake Lansing / Chamberlain,0
1300,19267,CATAMI:7694,0,,3,3681,3681,42.74094538017813,-84.5722102545985,Saginaw / Westmoreland,0
1301,18303,CATAMI:8684,0,,3,5700,5700,42.76109914889653,-84.52299045263698,Wood / Lake Lansing,0
1302,15383,CATAMI:8924,0,,3,3804,3804,42.72992870606834,-84.51973491302249,Kalamazoo / S Magnolia Av,0
1303,10802,CATAMI:9151,0,,3,5917,5917,42.71997322995444,-84.42464078074747,Rt 22 Wbd / Meijer,0
1304,13751,CATAMI:9113,0,,3,2916,2916,42.73020749537235,-84.48547080824021,Red Cedar / Chestnut,0
1305,15689,CATAMI:10786,0,,3,1682,1682,42.73350800100361,-84.51975289942919,Michigan / S Magnolia Av,0
1306,16367,CATAMI:9004,0,,3,3691,3691,42.7408734345513,-84.52054430132443,Saginaw / Magnolia Ave,0
1307,16635,CATAMI:9045,0,,3,2384,2384,42.74331958586384,-84.52159650611696,Grand River / Fairview,0
1308,16477,CATAMI:9044,0,,3,3739,3739,42.74335555867725,-84.51836794611253,Grand River / Foster Av,0
1309,15883,CATAMI:9856,0,,3,1757,1757,42.69823665744558,-84.56390053469855,Washington / Berry Ave,0
1310,17702,CATAMI:10404,0,,3,3444,3444,42.67429675011476,-84.60298499647907,Waverly / Old Farm Ln,0
1311,11969,CATAMI:9222,0,,3,5598,5598,42.68847003860213,-84.27918470968486,Grand River after Water St,0
1312,16769,CATAMI:9038,0,,3,3733,3733,42.7483557797426,-84.51507643368464,Hopkins / Downer Ave,0
1313,16927,CATAMI:9037,0,,3,3732,3732,42.74838275935266,-84.51834995970583,Hopkins / Hayford,0
1314,16400,CATAMI:8885,0,,3,2472,2472,42.74999254275319,-84.50356513339032,Coolidge / Pebble Creek Blvd,0
1315,17251,CATAMI:9015,0,,3,3705,3705,42.75201601350805,-84.51823304806221,Hayford / Ridgeline Dr,0
1316,21032,CATAMI:7999,0,,3,3759,3759,42.76217833329912,-84.57418875933658,Grand River / Tecumseh Av,0
1317,17521,CATAMI:9034,0,,3,3729,3729,42.7553794715628,-84.51743265296362,Hayford after Tulane Dr,0
1318,17576,CATAMI:9017,0,,3,3708,3708,42.75585611134061,-84.51764848984415,Wbdtulane / Hayford Ave,0
1319,19087,CATAMI:10704,0,,3,1779,1779,42.69347025966746,-84.6111778047354,Sheffield / Blue River Dr,0
1320,11615,CATAMI:10276,0,,3,3331,3331,42.65533907744256,-84.53310780641127,Cedar / Willoughby Rd,0
1321,17941,CATAMI:9683,0,,3,6122,6122,42.76063150232207,-84.51593978120671,Lake Lansing / Preyde,0
1322,14822,CATAMI:8903,0,,3,4650,4650,42.7300186381019,-84.50873622531941,Kalamazoo / Clippert,0
1323,15283,CATAMI:9823,0,,3,1734,1734,42.73368786507071,-84.51152411835943,Michigan / Howard Ave,0
1324,18474,CATAMI:8988,0,,3,3596,3596,42.7252882131372,-84.57724644847725,Everett / Malcolm X,0
1325,15339,CATAMI:10546,0,,3,4,4,42.73720420758249,-84.50621812838003,Frandor Center,0
1326,15737,CATAMI:8889,0,,3,4800,4800,42.74147597917607,-84.50642497205719,Grand River / Clippert,0
1327,17362,CATAMI:9035,0,,3,3730,3730,42.75342794643478,-84.51784634031796,Hayford / Groesbeck Ave,0
1328,16240,CATAMI:9010,0,,3,2352,2352,42.74453366831675,-84.51122734264872,Chester / Covington Ct,0
1329,18707,CATAMI:8986,0,,3,3594,3594,42.7287595896322,-84.57719248925713,McPherson / Lenawee St,0
1330,16415,CATAMI:9040,0,,3,2378,2378,42.74636828180115,-84.51139821351246,Chester / Woodruff Ave,0
1331,16561,CATAMI:9039,0,,3,2377,2377,42.74795108559162,-84.51138922030911,Chester / Hopkins Ave,0
1332,16620,CATAMI:9012,0,,3,3702,3702,42.7484547049795,-84.51167700281647,Hopkins / Chester Rd,0
1333,12910,CATAMI:10230,0,,3,4381,4381,42.67712061596821,-84.53825191873028,Pennsylvania / Louisa St,0
1334,15274,CATAMI:10125,0,,3,3798,3798,42.7209984551369,-84.53073360072557,Perkins / Dakin St,0
1335,13107,CATAMI:9501,0,,3,4752,4752,42.71482012443207,-84.50093012480733,Middlevale / Elementary School,0
1336,15278,CATAMI:10299,0,,3,3538,3538,42.71526079139646,-84.5380091022397,Pennsylvania / Parkdale Ave,0
1337,12953,CATAMI:9504,0,,3,2580,2580,42.71627702337556,-84.49556118240444,N Crescent / Harrison,0
1338,13221,CATAMI:10488,0,,3,6042,6042,42.71884907953508,-84.4963885571131,Capital Area Multimodal Gateway,0
1339,19107,CATAMI:10002,0,,3,1872,1872,42.74824786130234,-84.55992553881566,Pine St / W Willow St,0
1340,14079,CATAMI:10648,0,,3,191,191,42.72744658194239,-84.49829511622434,University Village,0
1341,16010,CATAMI:7887,0,,3,2512,2512,42.7601278829342,-84.46459758325342,Hagadorn / Farrington Ct,0
1342,12925,CATAMI:9640,0,,3,6096,6096,42.71823754170694,-84.49150524769136,Service / Harrison,0
1343,18817,CATAMI:8984,0,,3,3592,3592,42.73232089816076,-84.57505210685865,McPherson / Michigan,0
1344,15742,CATAMI:8936,0,,3,4799,4799,42.74078350251774,-84.50789086420404,Saginaw / Clippert,0
1345,14298,CATAMI:8928,0,,3,4596,4596,42.72795020133026,-84.50190139076966,Kalamazoo / Marigold,0
1346,11408,CATAMI:10275,0,,3,5669,5669,42.65352245036487,-84.53121024050337,Cedar / Willoughby,0
1347,14166,CATAMI:8929,0,,3,5805,5805,42.72801315375374,-84.49905054530615,Kalamazoo / U Vill Entrance,0
1348,15278,CATAMI:10394,0,,3,4738,4738,42.66471898854176,-84.57603236602434,Georgetown / Haag,0
1349,14103,CATAMI:10779,0,,3,6035,6035,42.72808509938059,-84.49759364636266,University Village East,0
1350,14103,CATAMI:10532,0,,3,6034,6034,42.72808509938059,-84.49759364636266,University Villiage East,0
1351,15821,CATAMI:8937,0,,3,2460,2460,42.74389515087855,-84.50336728291651,Coolidge / Melody Ln,0
1352,15948,CATAMI:8887,0,,3,2474,2474,42.74519017216166,-84.5035111741702,Coolidge / Dual Chartwell Ca,0
1353,16146,CATAMI:8886,0,,3,2473,2473,42.74730357495007,-84.50353815378026,Coolidge / Stonewood Dr,0
1354,20594,CATAMI:7997,0,,3,3757,3757,42.76055056349188,-84.56873887810349,Grand River / Hollywood St,0
1355,16487,CATAMI:8939,0,,3,2462,2462,42.75098179512224,-84.50341224893329,Coolidge / Fairoaks Ct,0
1356,19517,CATAMI:8100,0,,3,2213,2213,42.76408489241037,-84.54269456118762,N East / Howe,0
1357,16671,CATAMI:8940,0,,3,2463,2463,42.7529243270469,-84.50341224893329,Coolidge / Farwood Dr,0
1358,11710,CATAMI:8693,0,,3,6037,6037,42.72982078762809,-84.41012575053261,Times Square / Marsh,0
1359,6235,CATAMI:9265,0,,3,3311,3311,42.58124407500131,-84.44505535236316,Sycamore / Park St,0
1360,16768,CATAMI:8883,0,,3,2470,2470,42.75388659980587,-84.50355614018697,Coolidge / N Shore Dr,0
1361,11796,CATAMI:10167,0,,3,6051,6051,42.6691796174058,-84.52832342222645,Miller / Scotmar,0
1362,16939,CATAMI:8882,0,,3,2469,2469,42.75568524047686,-84.50352016737355,Coolidge / N Shore Dr,0
1363,17078,CATAMI:8942,0,,3,2465,2465,42.7572140850472,-84.50335828971316,Coolidge / Ramblewood Dr,0
1364,15946,CATAMI:10342,0,,3,3487,3487,42.69467534891702,-84.56758774807406,MLK / Warwick Dr,0
1365,17352,CATAMI:8880,0,,3,2949,2949,42.76000197808723,-84.50350218096685,Coolidge Rd / W Lake Lansing,0
1366,17370,CATAMI:8943,0,,3,2466,2466,42.76025378778117,-84.50334929650981,Coolidge / W Lake Lansing,0
1367,17365,CATAMI:8639,0,,3,4874,4874,42.76083834599924,-84.50185642475289,Lake Lansing / Meijer Ent.,0
1368,17264,CATAMI:7902,0,,3,2552,2552,42.76090129842272,-84.49914947054306,Lake Lansing / Marfitt Rd,0
1369,16785,CATAMI:10351,0,,3,3496,3496,42.68313706901265,-84.58658139355967,Jolly / Sidney St,0
1370,18424,CATAMI:8145,0,,3,5945,5945,42.77116254345069,-84.50321439845948,Coolidge / Earl,0
1371,17649,CATAMI:9056,0,,3,3039,3039,42.73260868066811,-84.55577967206904,Allegan / Townsend St,0
1372,18498,CATAMI:9090,0,,3,5988,5988,42.77315903459549,-84.49996785204836,Coleman / Hamlet,0
1373,16962,CATAMI:9196,0,,3,1596,1596,42.72759047319607,-84.55064455295337,Grand / Hillsdale,0
1374,13078,CATAMI:8865,0,,3,5926,5926,42.7188041135183,-84.49360965727642,Harrison / Service,0
1375,13099,CATAMI:8623,0,,3,2572,2572,42.71884008633172,-84.49396039220726,Harrison / Service Rd,0
1376,13121,CATAMI:10486,0,,3,4079,4079,42.72215857836969,-84.48815977604333,Wilson / Chestnut Rd,0
1377,13415,CATAMI:8867,0,,3,2583,2583,42.72259025213072,-84.4935916708697,Harrison / Wilson Rd,0
1378,13285,CATAMI:9335,0,,3,4627,4627,42.7241910423279,-84.48768313626552,Chestnut / Wilson Rd,0
1379,13653,CATAMI:8620,0,,3,3899,3899,42.72501841703655,-84.49396938541062,Harrison / Lilac Ave,0
1380,16146,CATAMI:9901,0,,3,5816,5816,42.69749921477047,-84.56822626551227,Holmes / MLK,0
1381,13564,CATAMI:9511,0,,3,5686,5686,42.72563894806805,-84.49084874384646,Shaw / Birch,0
1382,13401,CATAMI:10288,0,,3,3526,3526,42.68659045910094,-84.53803608184977,Pennsylvania / Kendon Dr,0
1383,13405,CATAMI:9464,0,,3,4814,4814,42.72578283932172,-84.48705361203068,N Shaw / Chestnut,0
1384,13982,CATAMI:8619,0,,3,2568,2568,42.72861569837853,-84.49398737181733,Harrison / Kalamazoo St,0
1385,13956,CATAMI:9111,0,,3,4072,4072,42.72928119542679,-84.49208980590943,Kalamazoo / Harrison,0
1386,13980,CATAMI:8121,0,,3,4805,4805,42.72929018863015,-84.49258443209396,Kalamazoo / Harrison,0
1387,13908,CATAMI:8120,0,,3,5718,5718,42.73006360411867,-84.48939184490295,Kalamazoo / Dem Hall Dr,0
1388,17603,CATAMI:10359,0,,3,5583,5583,42.67114912894053,-84.60308392171596,Waverly / Bridgeport,0
1389,14374,CATAMI:10687,0,,3,1691,1691,42.73362491264722,-84.49238658162015,Michigan / Harrison Rd,0
1390,14410,CATAMI:8931,0,,3,1727,1727,42.73390370195123,-84.49261141170402,Michigan / Center St,0
1391,18320,CATAMI:9089,0,,3,5948,5948,42.77013731826823,-84.50309748681588,Coolidge / Turf,0
1392,14512,CATAMI:8123,0,,3,169,169,42.73459617860956,-84.49345677281939,Harrison / Michigan,0
1393,14727,CATAMI:8124,0,,3,3872,3872,42.73690743187177,-84.49342979320932,Harrison Rd / Huntington,0
1394,14027,MFMI:5,0,,3,820723,,42.73534261448801,-84.48022777068428,East Lansing Marriott,0
